Timestamp,Seconds,T,P,H,MD,Sts,Vx,Vy,Vz,Lat,Lon,Alt,Yaw,Roll,Pitch,CH4,C2H6,H20,T_a,Batt,R,C2C1,Power,Current,SOC,Lat_a,Lon_a,TS,Rho,Rho_err,Sc_avg,WD_avg,V_avg,U_avg,W_avg,U_err_avg,V_err_avg,Nx,Ny,cross_wind,cross_wind_err
2023-04-19 07:14:29.063674,263.000779,16.98,887.2,52.89,20.0,1.0,-0.000985363,0.000201831,1.89218e-05,32.6910984,-103.075249,1155.33179,-20.9321625,0.52786915,1.071444,2.21974,23.3978,15386.0,25.4482,11825.0,-0.69604,-1.0,14.0,-1190.0,80.0,,0.0,,1.0652799295562154,0.014074788036679815,2.450265330381538,96.28698569677456,2.4284676026708696,-0.2677693194595364,0.4159806791999999,0.2318050926976314,0.21997820150067607,0.20066293008257194,0.979660343430659,0.2249804413006125,0.23134055872824844
2023-04-19 07:14:30.063951,264.001056,17.16,887.19,52.36,25.0,1.0,-0.00416692,0.000348278,-0.00654603,32.6910984,-103.075249,1155.28918,-20.7997243,0.523900359,1.04986864,2.22097,22.8642,15393.2,25.4561,11829.0,-0.694574,-1.0,14.0,-1184.0,80.0,,0.0,,1.0646074276100121,0.014063644599690518,2.450265330381538,96.28698569677456,2.4284676026708696,-0.2677693194595364,0.4159806791999999,0.2318050926976314,0.21997820150067607,0.08329121293725078,0.9965252499798696,-0.06456887580607976,0.2317251238031269
2023-04-19 07:14:31.064610,265.001715,16.17,887.17,55.76,12.0,1.0,-0.000473281,-0.0102288,-0.0194,32.6910984,-103.075249,1155.2207,-20.7550374,0.516099548,1.17856801,2.22025,23.7572,15400.6,25.4632,11867.0,-0.634719,-1.0,12.0,-1200.0,80.0,,0.0,,1.0682262373983766,0.014124829926830203,2.450265330381538,96.28698569677456,2.4284676026708696,-0.2677693194595364,0.4159806791999999,0.2318050926976314,0.21997820150067607,0.998931284446839,-0.04622000598646073,2.438248561121958,0.2200041448182949
2023-04-19 07:14:32.063983,266.001088,16.7,887.13,53.91,32.0,1.0,0.107846,-0.0411766,0.0642377,32.6910988,-103.075249,1155.0929,-20.1921142,1.06808979,3.3515363,2.22436,23.3974,15382.5,25.4708,11864.0,-0.60893,-1.0,12.0,-1209.0,80.0,,0.0,,1.0662248762924604,0.01409178753112965,2.450265330381538,96.28698569677456,2.4284676026708696,-0.2677693194595364,0.4159806791999999,0.2318050926976314,0.21997820150067607,0.3566942801833493,0.9342211678636287,0.6160647371397325,0.23033406689885438
2023-04-19 07:14:34.064047,268.001152,16.79,887.01,53.72,59.0,2.0,0.385072,-0.130323,0.660177,32.6911078,-103.07525,1156.99231,-18.4443051,1.13056469,-3.17296783,2.2226,23.9418,15363.9,25.4785,11841.0,-0.49464,-1.0,11.0,-1198.0,80.0,,0.0,,1.06574972946535,0.014085702436079565,2.450265330381538,96.28698569677456,2.4284676026708696,-0.2677693194595364,0.4159806791999999,0.2318050926976314,0.21997820150067607,0.3205761751600125,0.9472227382827003,0.5248716675576751,0.23061761872527814
2023-04-19 07:14:35.063685,269.00079,16.38,886.88,54.96,28.0,2.0,0.351663,-0.00582611,1.11075,32.6911116,-103.075251,1158.09998,-18.4636942,1.03721972,-3.91624163,2.22446,23.6885,15360.3,25.4857,11841.0,-0.411174,-1.0,11.0,-1198.0,80.0,,0.0,,1.0671025077757585,0.014110528383428663,2.450265330381538,96.28698569677456,2.4284676026708696,-0.2677693194595364,0.4159806791999999,0.2318050926976314,0.21997820150067607,0.016565036985845945,0.9998627903615863,-0.2275049232708635,0.23180193016086695
2023-04-19 07:14:36.063641,270.000746,16.41,886.82,54.99,77.0,2.0,0.535092,-0.181687,0.675036,32.6911155,-103.075252,1159.1283,-18.6729432,0.270067501,-0.107744844,2.22573,23.3978,15345.6,25.4934,11826.0,-0.348556,-1.0,11.0,-1179.0,80.0,,0.0,,1.066919765023561,0.014108407123979285,2.450265330381538,96.28698569677456,2.4284676026708696,-0.2677693194595364,0.4159806791999999,0.2318050926976314,0.21997820150067607,0.3215152193228599,0.9469044110910949,0.5272373441400888,0.2306106337039901
2023-04-19 07:14:37.064390,271.00149500000003,16.19,886.7,55.19,62.0,2.0,1.09886,-0.366955,0.925974,32.6911238,-103.075257,1160.0636,-18.6753655,0.978214531,-1.43510652,2.22669,23.431,15338.8,25.5007,11805.0,-0.30136,-1.0,13.0,-1159.0,80.0,,0.0,,1.0675865187255005,0.014121542325134783,2.450265330381538,96.28698569677456,2.4284676026708696,-0.2677693194595364,0.4159806791999999,0.2318050926976314,0.21997820150067607,0.3167469193013554,0.9485100890939963,0.5152277307119423,0.23064588871911695
2023-04-19 07:14:38.064620,272.001725,15.97,886.64,55.98,45.0,2.0,1.21334,-0.298997,0.597053,32.6911341,-103.075259,1160.67212,-18.6745588,0.191294371,-2.14788036,2.22896,23.5484,15334.0,25.5089,11834.0,-0.162063,-1.0,14.0,-1162.0,80.0,,0.0,,1.0683265820833676,0.014134963743225506,2.450265330381538,96.28698569677456,2.4284676026708696,-0.2677693194595364,0.4159806791999999,0.2318050926976314,0.21997820150067607,0.23926704256994158,0.970953800311752,0.32106062293184645,0.2311443490939571
2023-04-19 07:14:39.064335,273.00144,16.22,886.55,55.7,21.0,2.0,1.2199,-0.354915,0.884803,32.6911466,-103.075263,1161.59265,-18.6440277,-0.357647075,-5.05692427,2.23138,23.6045,15326.6,25.5159,11863.0,-0.166749,-1.0,14.0,-1196.0,80.0,,0.0,,1.0672952570681264,0.01411902643238669,2.450265330381538,96.28698569677456,2.4284676026708696,-0.2677693194595364,0.4159806791999999,0.2318050926976314,0.21997820150067607,0.2793549398830447,0.9601879074238232,0.421295558627889,0.23090392520657127
2023-04-19 07:14:40.064260,274.001365,16.09,886.44,55.6,36.0,2.0,0.921203,-0.183739,0.639392,32.6911574,-103.075266,1162.4248,-18.7227143,-0.27298327,-5.60302524,2.22987,23.7757,15336.1,25.5223,11874.0,-0.149268,-1.0,8.0,-1210.0,80.0,,0.0,,1.0676424711599362,0.01412662679894065,2.450265330381538,96.28698569677456,2.4284676026708696,-0.2677693194595364,0.4159806791999999,0.2318050926976314,0.21997820150067607,0.1956026589198694,0.9806832311319885,0.21241783877759113,0.23136371440132822
2023-04-19 07:14:41.064525,275.00163000000003,16.32,886.38,54.82,33.0,2.0,0.608815,-0.104173,0.973622,32.6911666,-103.075269,1163.39087,-18.6770378,-0.407958923,-4.7858513,2.22729,23.3461,15329.7,25.5288,11871.0,-0.0833894,-1.0,11.0,-1199.0,80.0,,0.0,,1.0667219623525992,0.014112079815176393,2.450265330381538,96.28698569677456,2.4284676026708696,-0.2677693194595364,0.4159806791999999,0.2318050926976314,0.21997820150067607,0.16865666447936228,0.9856748599445437,0.14564375920693778,0.23147702592569042
2023-04-19 07:14:42.064782,276.001887,16.7,886.35,53.4,34.0,2.0,0.50426,-0.138554,0.697355,32.691172,-103.07527,1164.02905,-18.8512342,-0.726502722,-2.34726834,2.23018,23.2229,15331.8,25.5357,11805.0,-0.0648321,-1.0,11.0,-1171.0,80.0,,0.0,,1.0652874089500097,0.014088411446580783,2.450265330381538,96.28698569677456,2.4284676026708696,-0.2677693194595364,0.4159806791999999,0.2318050926976314,0.21997820150067607,0.26494758668840324,0.9642628149565817,0.3852166329375582,0.23099464012391013
2023-04-19 07:14:43.063787,277.000892,16.42,886.26,54.39,9.0,2.0,0.997332,-0.269585,-0.0328433,32.6911791,-103.075273,1163.70544,-18.5148411,0.71437886,1.68003644,2.23071,24.1144,15343.6,25.542,11806.0,0.12339,-1.0,11.0,-1163.0,80.0,,0.0,,1.0662092157682799,0.014105357128858435,2.450265330381538,96.28698569677456,2.4284676026708696,-0.2677693194595364,0.4159806791999999,0.2318050926976314,0.21997820150067607,0.26094132800366004,0.9653546619453839,0.375195200388595,0.23101900582829868
2023-04-19 07:14:44.064316,278.001421,16.17,886.28,55.33,47.0,2.0,1.42455,-0.248277,0.773819,32.6911922,-103.075275,1164.34399,-18.7680484,-0.746268954,-2.94143497,2.23298,23.7463,15345.5,25.549,11837.0,0.224834,-1.0,14.0,-1178.0,80.0,,0.0,,1.067154603606336,0.014120958499439224,2.450265330381538,96.28698569677456,2.4284676026708696,-0.2677693194595364,0.4159806791999999,0.2318050926976314,0.21997820150067607,0.171696371193956,0.9851499155554079,0.15316615248678273,0.2314650850715632
2023-04-19 07:14:45.064566,279.001671,16.05,886.21,55.78,25.0,2.0,1.29873,-0.479789,0.517417,32.6912032,-103.075279,1165.03418,-18.8429937,-1.53783281,-2.38315335,2.23038,23.9009,15337.8,25.555,11869.0,0.241325,-1.0,11.0,-1203.0,80.0,,0.0,,1.0675130855691908,0.014128113107534028,2.450265330381538,96.28698569677456,2.4284676026708696,-0.2677693194595364,0.4159806791999999,0.2318050926976314,0.21997820150067607,0.34653801780129195,0.9380359279997496,0.590379107255131,0.23041689300439985
2023-04-19 07:14:46.064336,280.001441,16.2,886.15,55.22,25.0,2.0,1.46869,-0.638389,0.317695,32.6912143,-103.075284,1165.43909,-18.7365441,-1.05901596,-3.09021945,2.23108,23.9265,15338.1,25.5622,11872.0,0.315205,-1.0,13.0,-1204.0,80.0,,0.0,,1.0668874457595194,0.01411852982384894,2.450265330381538,96.28698569677456,2.4284676026708696,-0.2677693194595364,0.4159806791999999,0.2318050926976314,0.21997820150067607,0.39863584955949716,0.9171092952565566,0.7225005140575543,0.22996632686763707
2023-04-19 07:14:47.063809,281.000914,16.25,886.11,55.07,33.0,2.0,1.51338,-0.496602,0.563111,32.6912292,-103.075293,1165.94849,-18.8481433,-0.211637527,-3.78582477,2.23731,24.3594,15323.2,25.568,11857.0,0.538929,-1.0,9.0,-1198.0,80.0,,0.0,,1.0666549682784667,0.014115251448050304,2.450265330381538,96.28698569677456,2.4284676026708696,-0.2677693194595364,0.4159806791999999,0.2318050926976314,0.21997820150067607,0.3117841275565696,0.950152965476501,0.5027358398500281,0.23068201671158586
2023-04-19 07:14:48.064744,282.001849,16.47,886.05,54.36,12.0,2.0,1.38626,-0.44822,0.14498,32.6912425,-103.075301,1166.19141,-17.7660205,0.580824655,-3.36762343,2.23447,23.7365,15319.1,25.5743,11836.0,0.550317,-1.0,11.0,-1175.0,80.0,,0.0,,1.065772549905722,0.014101347921749647,2.450265330381538,96.28698569677456,2.4284676026708696,-0.2677693194595364,0.4159806791999999,0.2318050926976314,0.21997820150067607,0.3076488630039277,0.9514999616880657,0.4923327995965787,0.23071168050870222
2023-04-19 07:14:49.064074,283.001179,15.89,886.01,56.33,62.0,2.0,1.45183,-0.408813,-0.0409841,32.6912545,-103.075307,1166.40283,-14.5665395,-1.3794918,-3.70067812,2.23643,24.9341,15289.2,25.5807,11817.0,0.57542,-1.0,10.0,-1172.0,80.0,,0.0,,1.0678629646172384,0.014137199027364704,2.450265330381538,96.28698569677456,2.4284676026708696,-0.2677693194595364,0.4159806791999999,0.2318050926976314,0.21997820150067607,0.2710440482369414,0.9625669451603512,0.40047579420034046,0.23095684461018332
2023-04-19 07:14:50.064350,284.001455,16.06,885.97,55.61,73.0,2.0,1.48783,-0.568101,-0.158911,32.6912688,-103.075315,1166.57019,-14.4299557,-1.01380137,-2.70611757,2.23458,24.4431,15260.1,25.5875,11803.0,0.627364,-1.0,12.0,-1166.0,80.0,,0.0,,1.0671870844100753,0.014126446700592973,2.450265330381538,96.28698569677456,2.4284676026708696,-0.2677693194595364,0.4159806791999999,0.2318050926976314,0.21997820150067607,0.3567127749392331,0.9342141061850608,0.6161115419560801,0.23033391386104332
2023-04-19 07:14:51.064477,285.001582,15.63,886.02,57.29,26.0,2.0,1.60889,-0.476199,-0.127987,32.691282,-103.075322,1166.46899,-14.4997396,0.593922946,-4.33434557,2.23556,24.2489,15223.8,25.5936,11834.0,0.651955,-1.0,13.0,-1172.0,80.0,,0.0,,1.0688364670186603,0.01415345237558045,2.450265330381538,96.28698569677456,2.4284676026708696,-0.2677693194595364,0.4159806791999999,0.2318050926976314,0.21997820150067607,0.2838093609999712,0.9588807259554173,0.4324629990912032,0.2308748988086116
2023-04-19 07:14:52.064692,286.001797,15.78,886.02,56.73,45.0,2.0,1.4891,-0.702515,-0.165891,32.6912948,-103.075329,1166.43103,-14.5080953,-0.387930715,-3.57744095,2.24069,24.2936,15210.3,25.5997,11862.0,0.721567,0.0457894,14.0,-1185.0,80.0,,0.0,,1.0682815732033666,0.01414409598899665,2.450265330381538,96.28698569677456,2.4284676026708696,-0.2677693194595364,0.4159806791999999,0.2318050926976314,0.21997820150067607,0.4266729960458778,0.90440596771872,0.793989377340745,0.22969735250269907
2023-04-19 07:14:53.064228,287.001333,16.02,886.02,55.86,31.0,2.0,1.42259,-0.511625,-0.014803,32.6913075,-103.075337,1166.33472,-14.3563184,1.40289878,-2.51812033,2.23813,24.621,15198.1,25.606,11862.0,0.712403,0.0464743,14.0,-1185.0,80.0,,0.0,,1.0673949405043703,0.014129151863185816,2.450265330381538,96.28698569677456,2.4284676026708696,-0.2677693194595364,0.4159806791999999,0.2318050926976314,0.21997820150067607,0.33842233059907045,0.9409943284376869,0.5698782549391701,0.23048133759361383
2023-04-19 07:14:54.064673,288.001778,16.49,886.1,54.22,16.0,2.0,1.28695,-0.54975,-0.00781377,32.6913198,-103.075342,1166.34485,-10.581222,-0.14689847,-2.76683697,2.23975,25.1554,15185.5,25.6117,11873.0,0.711364,0.0502296,12.0,-1205.0,80.0,,0.0,,1.0657590946247275,0.014100325714526818,2.450265330381538,96.28698569677456,2.4284676026708696,-0.2677693194595364,0.4159806791999999,0.2318050926976314,0.21997820150067607,0.39283239091523686,0.9196100872912489,0.7077373673752886,0.23001968204076634
2023-04-19 07:14:55.064216,289.001321,16.26,886.08,54.97,34.0,2.0,1.43137,-0.412247,0.0361412,32.6913315,-103.075347,1166.22266,4.88439574,-0.830306626,-1.893431,2.24014,25.2051,15221.6,25.6183,11873.0,0.752867,0.0605968,12.0,-1207.0,80.0,,0.0,,1.0665820008352918,0.014114500392210318,2.450265330381538,96.28698569677456,2.4284676026708696,-0.2677693194595364,0.4159806791999999,0.2318050926976314,0.21997820150067607,0.27675889614220117,0.9609393911200385,0.4147899262302135,0.23092062839791286
2023-04-19 07:14:56.064408,290.001513,15.69,886.06,56.92,48.0,2.0,1.50181,-0.251296,-0.0520213,32.691345,-103.075351,1166.33679,4.95964575,3.23321296,-1.16442827,2.24145,24.6557,15237.7,25.6244,11870.0,0.781802,0.0638045,13.0,-1201.0,80.0,,0.0,,1.0686626836877768,0.01414988300158336,2.450265330381538,96.28698569677456,2.4284676026708696,-0.2677693194595364,0.4159806791999999,0.2318050926976314,0.21997820150067607,0.1650343155213628,0.986287825485236,0.13668286875118413,0.2314909762577838
2023-04-19 07:14:57.064176,291.001281,15.76,886.06,56.76,77.0,2.0,1.82306,-0.13001,-0.0475323,32.6913584,-103.07535,1166.37732,5.36963257,1.42685341,-2.12571486,2.24294,25.6872,15202.9,25.6306,11841.0,0.814331,0.0751778,10.0,-1179.0,80.0,,0.0,,1.0684037574205718,0.014145517354373171,2.450265330381538,96.28698569677456,2.4284676026708696,-0.2677693194595364,0.4159806791999999,0.2318050926976314,0.21997820150067607,0.0711335112885038,0.9974668032429792,-0.09434557945949776,0.23174676820976087
2023-04-19 07:14:58.063714,292.000819,15.61,886.04,57.24,34.0,2.0,2.09319,0.0532583,0.0659817,32.6913773,-103.075348,1166.21216,5.45888381,1.54723662,-3.16453395,2.24399,25.033,15176.2,25.6364,11817.0,0.838792,0.0795192,12.0,-1169.0,80.0,,0.0,,1.068934624778408,0.01415478825267475,2.450265330381538,96.28698569677456,2.4284676026708696,-0.2677693194595364,0.4159806791999999,0.2318050926976314,0.21997820150067607,0.025435373408606965,-0.9996764685534839,0.32945166794891717,0.2317976362663282
2023-04-19 07:14:59.063894,293.000999,15.56,886.06,57.36,37.0,2.0,1.95342,0.205925,0.0142052,32.691394,-103.075344,1166.36707,5.38352744,2.96275598,-4.14718962,2.24181,25.8931,15164.2,25.6425,11827.0,0.835594,0.0881154,15.0,-1186.0,80.0,,0.0,,1.0691438798669164,0.01415799789375487,2.450265330381538,96.28698569677456,2.4284676026708696,-0.2677693194595364,0.4159806791999999,0.2318050926976314,0.21997820150067607,0.1048367675880394,-0.994489442961408,0.5208864550077588,0.23167838769750757
2023-04-19 07:15:00.064244,294.001349,15.6,886.06,57.27,72.0,2.0,1.95799,0.412571,-0.0858881,32.6914142,-103.075337,1166.43347,5.34865559,1.21676585,-4.5378902,2.2475,25.9495,15154.9,25.6502,11820.0,0.860302,0.0959654,16.0,-1172.0,80.0,,0.0,,1.0689957733554196,0.01415549999769055,2.450265330381538,96.28698569677456,2.4284676026708696,-0.2677693194595364,0.4159806791999999,0.2318050926976314,0.21997820150067607,0.20618398787654238,-0.9785132411691351,0.762726959417671,0.23131461713366724
2023-04-19 07:15:01.064629,295.001734,15.36,886.06,58.07,54.0,2.0,1.81408,0.461994,-0.118256,32.6914339,-103.07533,1166.4696,4.0736157,1.90637065,-5.77300975,2.2443,25.8496,15160.2,25.6594,11862.0,0.857253,0.098523,14.0,-1186.0,80.0,,0.0,,1.0698850284439965,0.014170500809112228,2.450265330381538,96.28698569677456,2.4284676026708696,-0.2677693194595364,0.4159806791999999,0.2318050926976314,0.21997820150067607,0.24679375466991768,-0.9690680278782933,0.8588173240923633,0.23110206051204119
2023-04-19 07:15:02.064838,296.001943,15.94,886.07,55.92,49.0,2.0,1.67417,0.193985,-0.100929,32.6914528,-103.075323,1166.51282,2.91585563,0.484307834,-4.09901199,2.2421,26.3609,15158.8,25.6651,11873.0,0.86691,0.11381,11.0,-1208.0,80.0,,0.0,,1.0677505732092414,0.014134347521676778,2.450265330381538,96.28698569677456,2.4284676026708696,-0.2677693194595364,0.4159806791999999,0.2318050926976314,0.21997820150067607,0.1150992875249363,-0.9933539922964281,0.5455046133444352,0.2316523585410701
2023-04-19 07:15:03.064608,297.001713,15.97,886.08,55.81,41.0,2.0,1.6287,0.208179,-0.0990224,32.6914672,-103.075321,1166.44885,2.8739284,3.07955848,-3.76845458,2.24002,25.934,15168.0,25.6713,11873.0,0.855558,0.118872,11.0,-1208.0,80.0,,0.0,,1.0676518292118902,0.014132523921411852,2.450265330381538,96.28698569677456,2.4284676026708696,-0.2677693194595364,0.4159806791999999,0.2318050926976314,0.21997820150067607,0.12678760496619362,-0.9919298882617342,0.5735079822120521,0.23161975018173472
2023-04-19 07:15:04.064453,298.001558,16.27,886.06,54.73,49.0,2.0,1.44895,0.183256,-0.0034838,32.6914825,-103.075318,1166.37402,3.04473679,2.27670911,-4.50439831,2.24404,26.217,15172.7,25.6773,11871.0,0.885659,0.134287,12.0,-1209.0,80.0,,0.0,,1.0665210751032321,0.014113792853899475,2.450265330381538,96.28698569677456,2.4284676026708696,-0.2677693194595364,0.4159806791999999,0.2318050926976314,0.21997820150067607,0.12547546639166268,-0.9920967227714215,0.5703661693567103,0.23162356808559068
2023-04-19 07:15:05.064092,299.001197,15.36,886.03,58.1,64.0,2.0,1.26698,0.0733068,-0.0108071,32.6914928,-103.075318,1166.38208,15.0493378,1.66465445,-5.97127791,2.24475,26.4832,15187.0,25.6833,11864.0,0.898231,0.146864,12.0,-1204.0,80.0,,0.0,,1.0698488045417174,0.014170369383485667,2.450265330381538,96.28698569677456,2.4284676026708696,-0.2677693194595364,0.4159806791999999,0.2318050926976314,0.21997820150067607,0.05776287071952626,-0.9983303314866474,0.4075974936376283,0.23176663516959078
2023-04-19 07:15:06.064002,300.001107,15.69,886.08,56.75,63.0,2.0,1.27949,-0.398819,-0.0173355,32.6915028,-103.075324,1166.17981,48.6276657,4.85015339,-5.17761453,2.24288,26.046,15174.2,25.6896,11839.0,0.897858,0.15324,11.0,-1186.0,80.0,,0.0,,1.0686868053653986,0.014149970347817273,2.450265330381538,96.28698569677456,2.4284676026708696,-0.2677693194595364,0.4159806791999999,0.2318050926976314,0.21997820150067607,0.29758044384112986,0.954696747372335,0.4670259687224788,0.23078223359691102
2023-04-19 07:15:07.067692,301.004797,15.91,886.08,55.41,61.0,2.0,1.27564,0.358736,0.103128,32.6915128,-103.07533,1166.02686,36.6451281,9.71720914,-4.68508861,2.24112,26.9015,15159.2,25.6948,11828.0,0.869018,0.162531,11.0,-1175.0,80.0,,0.0,,1.0678734410217314,0.014136258763675833,2.450265330381538,96.28698569677456,2.4284676026708696,-0.2677693194595364,0.4159806791999999,0.2318050926976314,0.21997820150067607,0.2707191771345356,-0.9626583647024525,0.915203126281342,0.2309588805204203
2023-04-19 07:15:09.064710,303.001815,15.95,886.08,55.76,30.0,2.0,1.93793,1.11536,0.0275919,32.6915333,-103.075313,1166.16467,-16.9851696,-2.59539729,-2.0507947,2.245,26.9056,15123.6,25.701,11796.0,0.867255,0.170019,14.0,-1180.0,80.0,,0.0,,1.0677256895944025,0.014133768646198083,2.450265330381538,96.28698569677456,2.4284676026708696,-0.2677693194595364,0.4159806791999999,0.2318050926976314,0.21997820150067607,0.4988240785850868,-0.8667032586899274,1.4434546560287955,0.22891937187469677
2023-04-19 07:15:10.063710,304.000815,15.82,886.07,55.66,34.0,2.0,1.82588,0.449647,-0.0704344,32.6915492,-103.075303,1166.26514,-18.6639584,-3.27846761,-2.59079341,2.24517,26.703,15143.6,25.7069,11796.0,0.867209,0.172359,14.0,-1176.0,80.0,,0.0,,1.0681939758765948,0.01414182116644019,2.450265330381538,96.28698569677456,2.4284676026708696,-0.2677693194595364,0.4159806791999999,0.2318050926976314,0.21997820150067607,0.23911913532748963,-0.9709902363670985,0.8406944681153523,0.23114516690842257
2023-04-19 07:15:11.064737,305.001842,16.13,886.07,55.11,39.0,2.0,1.88585,0.161263,0.016357,32.691571,-103.075296,1166.45203,-18.2249737,-1.37367451,-3.2557534,2.24562,27.4326,15137.6,25.712,11791.0,0.863145,0.183194,14.0,-1167.0,80.0,,0.0,,1.0670492713255655,0.014122530637847627,2.450265330381538,96.28698569677456,2.4284676026708696,-0.2677693194595364,0.4159806791999999,0.2318050926976314,0.21997820150067607,0.08520116161554145,-0.9963637699451754,0.473703909305625,0.23172141355396214
2023-04-19 07:15:12.064276,306.001381,16.05,886.09,54.86,35.0,2.0,1.94619,0.0725991,-0.080223,32.69159,-103.075293,1166.31262,-13.2827512,-2.90528049,-2.60072658,2.24469,26.9971,15107.1,25.7179,11820.0,0.854977,0.19368,17.0,-1166.0,80.0,,0.0,,1.0673685356653662,0.01412759077282075,2.450265330381538,96.28698569677456,2.4284676026708696,-0.2677693194595364,0.4159806791999999,0.2318050926976314,0.21997820150067607,0.037277265225554655,-0.9993049612091914,0.3581098403119525,0.23178907681449293
2023-04-19 07:15:13.064404,307.001509,16.06,886.1,54.63,45.0,2.0,2.03374,-0.252912,-0.00925615,32.691612,-103.075296,1166.30957,2.33122754,-0.254079847,-3.49426593,2.24451,27.5313,15126.7,25.7232,11820.0,0.832324,0.198385,17.0,-1166.0,80.0,,0.0,,1.0673436747246157,0.01412701245646073,2.450265330381538,96.28698569677456,2.4284676026708696,-0.2677693194595364,0.4159806791999999,0.2318050926976314,0.21997820150067607,0.12340749602091394,0.992356080208031,0.033968593754686194,0.23162950446896702
2023-04-19 07:15:14.063802,308.000907,16.09,886.1,54.59,28.0,2.0,2.24532,-0.167509,0.0110454,32.6916374,-103.075301,1166.37439,2.72592372,1.72701941,-3.82315718,2.24631,27.2838,15145.7,25.729,11857.0,0.8387,0.212366,14.0,-1199.0,80.0,,0.0,,1.0672329697383007,0.014125147263010911,2.450265330381538,96.28698569677456,2.4284676026708696,-0.2677693194595364,0.4159806791999999,0.2318050926976314,0.21997820150067607,0.0743968719100471,0.9972287127083737,-0.08635686057382691,0.23174129324965764
2023-04-19 07:15:15.063662,309.000767,16.13,886.05,54.94,39.0,2.0,2.30209,-0.202702,-0.0159892,32.6916577,-103.075307,1166.32812,2.55766778,2.83256077,-3.68161308,2.24408,28.0417,15169.1,25.7342,11870.0,0.807153,0.219268,16.0,-1216.0,80.0,,0.0,,1.0670251863374423,0.014122443654124172,2.450265330381538,96.28698569677456,2.4284676026708696,-0.2677693194595364,0.4159806791999999,0.2318050926976314,0.21997820150067607,0.08771193239184155,0.9961458813427324,-0.053731718548318735,0.23171640809111588
2023-04-19 07:15:16.064172,310.001277,15.97,886.06,54.85,76.0,2.0,2.37973,-0.243513,0.0353496,32.6916788,-103.075313,1166.15698,2.72876514,1.30357881,-3.37171902,2.24061,27.9542,15144.4,25.7402,11871.0,0.739949,0.228267,14.0,-1197.0,80.0,,0.0,,1.067627730895052,0.014132436805640289,2.450265330381538,96.28698569677456,2.4284676026708696,-0.2677693194595364,0.4159806791999999,0.2318050926976314,0.21997820150067607,0.10179642694430575,0.9948052510222152,-0.01916900015909334,0.23168563207039672
2023-04-19 07:15:17.064248,311.001353,15.91,886.04,55.16,42.0,2.0,2.31118,-0.25647,0.0742824,32.6917002,-103.07532,1166.14441,2.72076269,3.17794385,-4.13928222,2.24322,27.7824,15150.0,25.7459,11847.0,0.707089,0.247763,12.0,-1183.0,80.0,,0.0,,1.06782523438391,0.014136084434927709,2.450265330381538,96.28698569677456,2.4284676026708696,-0.2677693194595364,0.4159806791999999,0.2318050926976314,0.21997820150067607,0.1102922865214157,0.99389919586137,0.0017055333545715201,0.2316648534824857
2023-04-19 07:15:18.063688,312.000793,15.65,886.06,56.05,29.0,2.0,2.18422,-0.422459,-0.022571,32.691722,-103.075325,1166.17993,2.85207078,2.44974531,-4.9604924,2.24495,27.3803,15159.4,25.7517,11817.0,0.698334,-1.0,13.0,-1171.0,80.0,,0.0,,1.0688106979098941,0.014152378885538181,2.450265330381538,96.28698569677456,2.4284676026708696,-0.2677693194595364,0.4159806791999999,0.2318050926976314,0.21997820150067607,0.18989484557365444,0.9818044345105383,0.19825637511856575,0.2313891207944973
2023-04-19 07:15:19.063924,313.001029,15.78,886.05,56.15,54.0,2.0,1.97046,-0.243648,0.107396,32.6917397,-103.07533,1166.03113,2.78227477,2.62195574,-3.45228583,2.24565,27.7576,15165.6,25.7575,11794.0,0.663051,-1.0,15.0,-1171.0,80.0,,0.0,,1.0683177444491583,0.01414422689334344,2.450265330381538,96.28698569677456,2.4284676026708696,-0.2677693194595364,0.4159806791999999,0.2318050926976314,0.21997820150067607,0.12271574873274184,0.9924418597645721,0.032265738742646266,0.23163146816901992
2023-04-19 07:15:20.063840,314.000945,15.78,886.06,56.12,40.0,2.0,1.73232,-0.00661114,0.156401,32.6917562,-103.075331,1165.93091,2.95230423,2.3065845,-9.49335075,2.24554,28.3376,15172.6,25.7622,11809.0,0.658736,-1.0,13.0,-1166.0,80.0,,0.0,,1.0683298015310887,0.014144270528841416,2.450265330381538,96.28698569677456,2.4284676026708696,-0.2677693194595364,0.4159806791999999,0.2318050926976314,0.21997820150067607,0.003816322536513482,0.9999927178146335,-0.25849955387245094,0.23180492484115517
2023-04-19 07:15:21.064079,315.001184,15.5,886.02,57.21,52.0,2.0,0.387576,-0.0603146,0.176995,32.6917635,-103.075334,1166.16626,3.03093686,2.01755573,-12.6557422,2.24162,28.4328,15189.6,25.7678,11811.0,0.559059,-1.0,15.0,-1172.0,80.0,,0.0,,1.0693178414884763,0.01416157141434883,2.450265330381538,96.28698569677456,2.4284676026708696,-0.2677693194595364,0.4159806791999999,0.2318050926976314,0.21997820150067607,0.1537692364770042,0.9881067866952838,0.10883892724509497,0.2315324196435445
2023-04-19 07:15:22.064442,316.001547,15.75,886.02,56.13,72.0,2.0,-0.158306,-0.212386,0.0231519,32.6917604,-103.075338,1166.04211,27.4457608,2.26356612,-3.01945952,2.24486,28.6008,15166.8,25.7727,11862.0,0.490565,-1.0,14.0,-1196.0,80.0,,0.0,,1.0683925058693275,0.014145966261555714,2.450265330381538,96.28698569677456,2.4284676026708696,-0.2677693194595364,0.4159806791999999,0.2318050926976314,0.21997820150067607,0.8017786207633244,-0.59762115364741,2.107118014644657,0.22427379625040722
2023-04-19 07:15:23.063909,317.001014,16.05,886.05,55.09,129.0,2.0,0.108986,-0.0741965,0.0885205,32.6917578,-103.075341,1166.31726,76.9176783,4.266848,-4.07418174,2.2466,28.5813,15154.0,25.7782,11867.0,0.495928,-1.0,11.0,-1212.0,80.0,,0.0,,1.0673203523640913,0.014127416672676984,2.450265330381538,96.28698569677456,2.4284676026708696,-0.2677693194595364,0.4159806791999999,0.2318050926976314,0.21997820150067607,0.5627560784113228,0.8266230073081132,1.1452906245115162,0.228125934603049
2023-04-19 07:15:24.064724,318.001829,16.15,886.02,54.74,97.0,2.0,0.490937,0.0303341,0.0223322,32.6917557,-103.075341,1166.27576,91.4127418,4.22712851,-4.25606947,2.24734,29.1217,15128.7,25.7824,11860.0,0.47705,-1.0,12.0,-1207.0,80.0,,0.0,,1.0669152953530894,0.014121070506526369,2.450265330381538,96.28698569677456,2.4284676026708696,-0.2677693194595364,0.4159806791999999,0.2318050926976314,0.21997820150067607,0.061670562292867784,-0.9980965593300487,0.41702459901343714,0.2317612553081219
2023-04-19 07:15:25.063726,319.000831,15.74,885.95,56.15,76.0,2.0,0.33993,0.122124,-0.0605046,32.6917544,-103.075341,1166.33899,91.6753309,6.29505005,-6.32352708,2.24814,29.2392,15114.8,25.7878,11840.0,0.494253,-1.0,12.0,-1189.0,80.0,,0.0,,1.0683450772850343,0.014146284251052677,2.450265330381538,96.28698569677456,2.4284676026708696,-0.2677693194595364,0.4159806791999999,0.2318050926976314,0.21997820150067607,0.3381047103748367,-0.9411084979014629,1.0730763174763696,0.23048382831970085
2023-04-19 07:15:26.063834,320.000939,15.66,885.98,55.88,83.0,2.0,0.111447,0.466081,0.0239323,32.6917516,-103.075338,1166.22131,91.1281558,7.6777092,-7.73575232,2.24823,29.9716,15057.3,25.7883,11843.0,0.518916,-1.0,12.0,-1183.0,80.0,,0.0,,1.0686771937776394,0.014151405361189822,2.450265330381538,96.28698569677456,2.4284676026708696,-0.2677693194595364,0.4159806791999999,0.2318050926976314,0.21997820150067607,0.9725822674362024,-0.23255909586308451,2.4241567182343764,0.2206340610559438
2023-04-19 07:15:27.063969,321.001074,15.67,886.03,56.35,90.0,2.0,-0.27459,0.558064,-0.682883,32.6917459,-103.075333,1165.84338,91.3913453,6.94000439,-6.93206905,2.24972,29.6332,14992.4,25.7919,11803.0,0.54809,-1.0,14.0,-1171.0,80.0,,0.0,,1.0687005006520702,0.014150999790440193,2.450265330381538,96.28698569677456,2.4284676026708696,-0.2677693194595364,0.4159806791999999,0.2318050926976314,0.21997820150067607,0.8972657141331168,0.4414909265672261,2.0607629928051496,0.22233279854225665
2023-04-19 07:15:28.064649,322.001754,15.73,886.07,55.52,75.0,2.0,-0.243365,0.30726,-0.911862,32.6917394,-103.075328,1165.03943,91.4997586,5.77209362,-5.73560098,2.25273,30.1885,14941.6,25.7972,11796.0,0.623111,-1.0,14.0,-1164.0,80.0,,0.0,,1.0685267696242715,0.014147431667584552,2.450265330381538,96.28698569677456,2.4284676026708696,-0.2677693194595364,0.4159806791999999,0.2318050926976314,0.21997820150067607,0.7838999154307752,0.6208872060105792,1.7374210037454862,0.22461125200894358
2023-04-19 07:15:29.064530,323.001635,15.66,886.12,55.75,99.0,2.0,-0.0179043,0.224822,-0.415367,32.6917356,-103.075327,1164.62817,91.4275171,7.54517103,-7.53547142,2.24939,31.0605,14919.8,25.8027,11803.0,0.677588,-1.0,16.0,-1170.0,80.0,,0.0,,1.0688460630603873,0.014152016947976994,2.450265330381538,96.28698569677456,2.4284676026708696,-0.2677693194595364,0.4159806791999999,0.2318050926976314,0.21997820150067607,0.996843925180676,0.07938632646988274,2.399545954607303,0.22005472714659594
2023-04-19 07:15:30.064408,324.001513,15.88,886.17,54.85,66.0,2.0,-0.293883,0.791329,0.00426441,32.6917318,-103.07532,1164.65967,91.2084415,6.71016152,-6.74851247,2.24668,30.9573,14894.3,25.8083,11810.0,0.642164,-1.0,14.0,-1183.0,80.0,,0.0,,1.0680927576233654,0.014138519308059016,2.450265330381538,96.28698569677456,2.4284676026708696,-0.2677693194595364,0.4159806791999999,0.2318050926976314,0.21997820150067607,0.9374404284020225,0.348145721210864,2.18332096696683,0.22144532750448503
2023-04-19 07:15:31.064519,325.001624,15.61,886.15,55.89,89.0,2.0,-0.158954,0.800329,0.0745607,32.6917277,-103.075312,1164.31897,91.3921755,6.36526919,-6.38713781,2.24698,31.3592,14883.0,25.8139,11857.0,0.691521,-1.0,15.0,-1199.0,80.0,,0.0,,1.069067330760898,0.014155269029778256,2.450265330381538,96.28698569677456,2.4284676026708696,-0.2677693194595364,0.4159806791999999,0.2318050926976314,0.21997820150067607,0.9808418320866437,0.19480580183587015,2.329779595582395,0.2204386071649191
2023-04-19 07:15:32.067569,326.004674,15.62,886.13,55.91,70.0,2.0,-0.234743,0.862125,0.0416302,32.6917255,-103.075304,1164.65625,91.2882385,8.02136854,-8.02357164,2.24621,31.0335,14869.6,25.8193,11857.0,0.680584,-1.0,15.0,-1199.0,80.0,,0.0,,1.0690061818234324,0.014154557305330948,2.450265330381538,96.28698569677456,2.4284676026708696,-0.2677693194595364,0.4159806791999999,0.2318050926976314,0.21997820150067607,0.9648722651071152,0.26271945498395194,2.2728128268584546,0.2208148643480573
2023-04-19 07:15:33.063864,327.000969,15.74,886.12,55.35,67.0,2.0,-0.146796,0.925217,-0.0490497,32.6917244,-103.075295,1164.66016,91.293026,8.16127769,-8.17413539,2.24901,31.4547,14797.6,25.8243,11863.0,0.687574,-1.0,16.0,-1203.0,80.0,,0.0,,1.068550076058259,0.014147026322433918,2.450265330381538,96.28698569677456,2.4284676026708696,-0.2677693194595364,0.4159806791999999,0.2318050926976314,0.21997820150067607,0.9876460776766812,0.156701069715133,2.356506763746575,0.22027621845145354
2023-04-19 07:15:34.063910,328.001015,15.9,886.18,54.92,81.0,2.0,-0.26398,1.14814,0.00673617,32.6917223,-103.075283,1164.71814,91.5109223,6.55684073,-6.55968469,2.25292,31.6419,14717.0,25.8298,11867.0,0.703497,0.412428,15.0,-1205.0,80.0,,0.0,,1.0680309060320479,0.014137317320246756,2.450265330381538,96.28698569677456,2.4284676026708696,-0.2677693194595364,0.4159806791999999,0.2318050926976314,0.21997820150067607,0.9745722796358044,0.22407336246299225,2.3067172357809205,0.22058713645778266
2023-04-19 07:15:35.063903,329.001008,16.04,886.15,54.37,45.0,2.0,-0.0532793,1.20647,-0.0565201,32.6917214,-103.075272,1164.52563,91.3613954,6.37258507,-6.36564986,2.24849,32.5978,14727.4,25.8358,11867.0,0.696089,-1.0,11.0,-1207.0,80.0,,0.0,,1.0674777220184546,0.014128473852143067,2.450265330381538,96.28698569677456,2.4284676026708696,-0.2677693194595364,0.4159806791999999,0.2318050926976314,0.21997820150067607,0.9990263131389004,0.04411831429344956,2.414289504679484,0.22000183922232033
2023-04-19 07:15:36.064444,330.001549,15.46,886.17,56.36,93.0,2.0,0.216735,1.18382,0.0482519,32.6917237,-103.075259,1164.43274,91.3418958,8.47264059,-8.48108164,2.24861,31.8871,14744.5,25.8412,11868.0,0.703883,0.437124,14.0,-1203.0,80.0,,0.0,,1.0696471007098898,0.014164728017277415,2.450265330381538,96.28698569677456,2.4284676026708696,-0.2677693194595364,0.4159806791999999,0.2318050926976314,0.21997820150067607,0.9836505456559321,-0.1800877675767761,2.436985461441975,0.22037172554186937
2023-04-19 07:15:37.064485,331.00159,15.84,886.14,55.14,70.0,2.0,0.0821485,1.21565,0.11553,32.6917249,-103.075248,1164.63513,91.3228908,7.98105215,-7.98311771,2.25347,32.9278,14692.1,25.8469,11826.0,0.734004,0.437632,16.0,-1174.0,80.0,,0.0,,1.068204431910567,0.014140880289950976,2.450265330381538,96.28698569677456,2.4284676026708696,-0.2677693194595364,0.4159806791999999,0.2318050926976314,0.21997820150067607,0.9977245469696505,-0.06742201698411016,2.440995286309691,0.22003340163334745
2023-04-19 07:15:38.063993,332.001098,15.71,886.16,55.46,131.0,2.0,-0.0712819,1.25606,0.0150193,32.6917244,-103.075234,1164.53381,91.340938,7.34944066,-7.34320442,2.25232,33.3836,14639.4,25.8528,11808.0,0.749464,0.470784,12.0,-1177.0,80.0,,0.0,,1.0687092919864263,0.01414907205774944,2.450265330381538,96.28698569677456,2.4284676026708696,-0.2677693194595364,0.4159806791999999,0.2318050926976314,0.21997820150067607,0.9983935755921696,0.056659228871233196,2.4093948498843614,0.22001718617983013
2023-04-19 07:15:39.063853,333.000958,15.63,886.17,55.76,81.0,2.0,-0.00385202,1.19562,0.090985,32.6917258,-103.07522,1164.39709,91.3783588,7.69616418,-7.68533793,2.24639,33.9093,14629.3,25.8583,11794.0,0.675668,-1.0,16.0,-1182.0,80.0,,0.0,,1.069017417189145,0.014154107856935645,2.450265330381538,96.28698569677456,2.4284676026708696,-0.2677693194595364,0.4159806791999999,0.2318050926976314,0.21997820150067607,0.9999948101196233,0.003221759429016271,2.427592310884743,0.2199783275606516
2023-04-19 07:15:40.064113,334.001218,15.68,886.16,55.5,82.0,2.0,0.0231739,1.07334,0.106572,32.6917266,-103.075207,1164.64429,91.2491154,8.82503735,-8.8056652,2.24603,33.8956,14682.8,25.8638,11796.0,0.608982,-1.0,14.0,-1197.0,80.0,,0.0,,1.0688202959637125,0.014150943675509493,2.450265330381538,96.28698569677456,2.4284676026708696,-0.2677693194595364,0.4159806791999999,0.2318050926976314,0.21997820150067607,0.9997670075592415,-0.021585425546870714,2.4336817027857505,0.21998386007169365
2023-04-19 07:15:41.064275,335.00138,15.9,886.15,54.86,83.0,2.0,-0.224772,0.933553,-0.0187875,32.6917245,-103.075195,1164.65076,91.1288856,6.5909845,-6.54458914,2.24494,34.3305,14722.6,25.8694,11796.0,0.519217,-1.0,14.0,-1197.0,80.0,,0.0,,1.0679947498028608,0.014137186550089465,2.450265330381538,96.28698569677456,2.4284676026708696,-0.2677693194595364,0.4159806791999999,0.2318050926976314,0.21997820150067607,0.9722170584677264,0.23408116375385984,2.298317875336177,0.2206426612050299
2023-04-19 07:15:42.067397,336.004502,15.64,886.17,55.71,107.0,2.0,-0.136413,0.713668,0.0812436,32.6917232,-103.075188,1164.49646,90.9650079,6.07177434,-6.07881264,2.2455,33.5502,14722.5,25.8748,11809.0,0.459353,-1.0,17.0,-1187.0,80.0,,0.0,,1.0689804000688434,0.01415348364502053,2.450265330381538,96.28698569677456,2.4284676026708696,-0.2677693194595364,0.4159806791999999,0.2318050926976314,0.21997820150067607,0.9822178872736343,0.18774456561966874,2.3350120834396444,0.2204058667083384
2023-04-19 07:15:43.064180,337.001285,15.67,886.18,55.59,79.0,2.0,-0.076612,0.900983,0.0340006,32.6917221,-103.07518,1164.58191,88.0029291,6.86759215,-6.82884376,2.24559,34.1727,14683.4,25.8803,11825.0,0.392424,-1.0,15.0,-1175.0,80.0,,0.0,,1.0688814257619397,0.01415165502968802,2.450265330381538,96.28698569677456,2.4284676026708696,-0.2677693194595364,0.4159806791999999,0.2318050926976314,0.21997820150067607,0.9964043029142494,0.08472582330062478,2.397048592743249,0.22006536540759808
2023-04-19 07:15:44.064306,338.001411,15.73,886.17,55.4,95.0,2.0,-0.0497189,1.05724,-0.00219729,32.6917213,-103.075167,1164.73352,87.8393411,7.61222119,-7.63304994,2.24685,34.8987,14583.4,25.8864,11843.0,0.367921,-1.0,18.0,-1180.0,80.0,,0.0,,1.068647361312245,0.014147868251791812,2.450265330381538,96.28698569677456,2.4284676026708696,-0.2677693194595364,0.4159806791999999,0.2318050926976314,0.21997820150067607,0.9988960580469726,0.046975155329378286,2.4132082100286594,0.22000499942300175
2023-04-19 07:15:45.064652,339.001757,16.32,886.18,53.4,75.0,2.0,-0.218112,1.01551,-0.0147867,32.6917187,-103.075155,1164.72083,88.2922408,4.95904051,-5.06137011,2.25066,35.0281,14541.8,25.8916,11855.0,0.381181,-1.0,17.0,-1199.0,80.0,,0.0,,1.066481270558481,0.014111211377353671,2.450265330381538,96.28698569677456,2.4284676026708696,-0.2677693194595364,0.4159806791999999,0.2318050926976314,0.21997820150067607,0.977703143905584,0.20999181507177103,2.3180910445903247,0.2205130960486262
2023-04-19 07:15:46.064040,340.001145,15.71,886.17,55.55,99.0,2.0,-0.14466,0.97881,0.0090215,32.6917169,-103.075145,1164.6781,87.6335743,6.78936203,-6.75053542,2.2455,35.4082,14572.4,25.8973,11863.0,0.259277,-1.0,15.0,-1204.0,80.0,,0.0,,1.0687213519901728,0.014149115726023525,2.450265330381538,96.28698569677456,2.4284676026708696,-0.2677693194595364,0.4159806791999999,0.2318050926976314,0.21997820150067607,0.9892545190498448,0.14620361329139625,2.3632237082747385,0.22023765008438917
2023-04-19 07:15:47.064531,341.001636,15.64,886.16,55.77,83.0,2.0,-0.134534,1.13009,-0.0263796,32.6917162,-103.075132,1164.92542,87.7813098,7.00594557,-7.02076861,2.24533,35.4236,14590.1,25.9026,11858.0,0.143766,-1.0,15.0,-1198.0,80.0,,0.0,,1.0689683371418648,0.014153439947881472,2.450265330381538,96.28698569677456,2.4284676026708696,-0.2677693194595364,0.4159806791999999,0.2318050926976314,0.21997820150067607,0.9929883282221639,0.1182124359555804,2.3797863213903527,0.22014785000187267
2023-04-19 07:15:49.064008,343.00111300000003,15.76,886.14,55.35,84.0,2.0,-0.00387597,1.29841,-0.096776,32.6917172,-103.075104,1165.00012,87.7481805,7.02087023,-7.0052857,2.24143,36.4883,14620.6,25.908,11848.0,-0.0514845,-1.0,13.0,-1187.0,80.0,,0.0,,1.068500220753296,0.014145866517135947,2.450265330381538,96.28698569677456,2.4284676026708696,-0.2677693194595364,0.4159806791999999,0.2318050926976314,0.21997820150067607,0.9999955444203432,0.0029851531721725283,2.4276574500066266,0.2199783097248452
2023-04-19 07:15:50.063318,344.000423,16.13,886.13,54.05,99.0,2.0,-0.0279506,1.44726,-0.130592,32.6917167,-103.075089,1164.94482,87.9422936,6.78439466,-6.77987989,2.23917,35.7687,14666.1,25.9138,11835.0,-0.204951,-1.0,13.0,-1189.0,80.0,,0.0,,1.0671215262899356,0.014122791597583588,2.450265330381538,96.28698569677456,2.4284676026708696,-0.2677693194595364,0.4159806791999999,0.2318050926976314,0.21997820150067607,0.9998135606033646,0.019309169677183297,2.4228444374124907,0.21998272957820905
2023-04-19 07:15:51.064669,345.001774,15.64,886.12,55.8,74.0,2.0,-0.0122682,1.29396,-0.107132,32.6917159,-103.075075,1164.75745,87.755018,6.53190759,-6.51270481,2.24088,36.7895,14710.0,25.9188,11825.0,-0.326178,-1.0,14.0,-1173.0,80.0,,0.0,,1.06892008543395,0.01415326516290722,2.450265330381538,96.28698569677456,2.4284676026708696,-0.2677693194595364,0.4159806791999999,0.2318050926976314,0.21997820150067607,0.9999550571387312,0.009480701592008232,2.425819819375016,0.21997929311946837
2023-04-19 07:15:52.069811,346.006916,15.52,886.17,56.28,72.0,2.0,0.00311447,1.36516,-0.0346334,32.6917163,-103.075062,1164.7489,87.636659,6.85776952,-6.79085175,2.23978,36.6099,14728.5,25.9243,11825.0,-0.511285,-1.0,14.0,-1173.0,80.0,,0.0,,1.0694247747804804,0.014160977878620551,2.450265330381538,96.28698569677456,2.4284676026708696,-0.2677693194595364,0.4159806791999999,0.2318050926976314,0.21997820150067607,0.9999973976272456,-0.002281389650288127,2.4290721690470254,0.2199782647112885
2023-04-19 07:15:53.063949,347.001054,15.56,886.15,56.06,88.0,2.0,0.0683073,1.59635,-0.0591364,32.6917175,-103.075046,1164.6781,87.8468421,6.17400995,-6.15420057,2.23675,37.8541,14709.0,25.9299,11803.0,-0.642316,-1.0,15.0,-1177.0,80.0,,0.0,,1.0692524762928786,0.014158391445824694,2.450265330381538,96.28698569677456,2.4284676026708696,-0.2677693194595364,0.4159806791999999,0.2318050926976314,0.21997820150067607,0.9990857770301059,-0.042750557144317025,2.4376947293999143,0.22000039637937943
2023-04-19 07:15:54.064485,348.00159,16.02,886.18,54.54,76.0,2.0,0.126509,1.66355,0.0208758,32.6917195,-103.075027,1164.6571,87.8719105,7.55553175,-7.5630879,2.23843,38.2756,14721.8,25.9346,11812.0,-0.72056,-1.0,13.0,-1189.0,80.0,,0.0,,1.0675876937046147,0.014129848477943725,2.450265330381538,96.28698569677456,2.4284676026708696,-0.2677693194595364,0.4159806791999999,0.2318050926976314,0.21997820150067607,0.9971208626336652,-0.07582865751610984,2.4417802988717052,0.22004802296352283
2023-04-19 07:15:55.064101,349.001206,15.95,886.17,54.79,93.0,2.0,0.0323734,1.64544,-0.00104353,32.6917198,-103.075013,1164.64685,87.8235888,7.44086718,-7.38143225,2.23694,38.0886,14714.8,25.9399,11843.0,-0.773619,-1.0,10.0,-1198.0,80.0,,0.0,,1.067834139522246,0.014134160758818235,2.450265330381538,96.28698569677456,2.4284676026708696,-0.2677693194595364,0.4159806791999999,0.2318050926976314,0.21997820150067607,0.999806510915962,-0.019670809084793926,2.4332649598606664,0.21998290077647653
2023-04-19 07:15:56.064375,350.00148,15.92,886.15,54.8,82.0,2.0,0.0809869,1.83038,0.0407455,32.6917187,-103.074993,1164.74487,87.6367881,6.43604345,-6.40823531,2.23537,38.2683,14714.5,25.9453,11858.0,-0.812948,-1.0,9.0,-1199.0,80.0,,0.0,,1.0679208580292556,0.014135941211094172,2.450265330381538,96.28698569677456,2.4284676026708696,-0.2677693194595364,0.4159806791999999,0.2318050926976314,0.21997820150067607,0.999022582887843,-0.044202702181008115,2.4379301043609813,0.22000192973064933
2023-04-19 07:15:57.064102,351.001207,15.88,886.13,55.09,94.0,2.0,0.0898243,1.86921,0.0329117,32.6917188,-103.074976,1164.56543,88.0359873,5.92804341,-5.93976065,2.23524,38.3396,14702.6,25.9502,11861.0,-0.84001,-1.0,13.0,-1210.0,80.0,,0.0,,1.068044545981914,0.01413834491709384,2.450265330381538,96.28698569677456,2.4284676026708696,-0.2677693194595364,0.4159806791999999,0.2318050926976314,0.21997820150067607,0.9988473694697005,-0.04799929690588712,2.4385212158372136,0.22000618056973362
2023-04-19 07:15:58.064630,352.001735,16.11,886.21,54.13,81.0,2.0,-0.0390904,1.81742,0.0997868,32.6917192,-103.074955,1164.52478,88.0874824,6.46250479,-6.48247788,2.23717,38.9374,14671.6,25.9554,11852.0,-0.856083,-1.0,12.0,-1175.0,80.0,,0.0,,1.0672916557650902,0.014124382616477981,2.450265330381538,96.28698569677456,2.4284676026708696,-0.2677693194595364,0.4159806791999999,0.2318050926976314,0.21997820150067607,0.9997687674479352,0.021503758639745477,2.4221480150927106,0.2199838173356438
2023-04-19 07:15:59.064053,353.00115800000003,15.95,886.2,54.81,70.0,2.0,0.00888108,1.69195,0.0818039,32.6917201,-103.074939,1164.51318,88.0658593,6.15250946,-6.20827708,2.24973,40.4433,14666.8,25.9612,11826.0,-0.69658,-1.0,12.0,-1167.0,80.0,,0.0,,1.0678702894981937,0.014134291469457478,2.450265330381538,96.28698569677456,2.4284676026708696,-0.2677693194595364,0.4159806791999999,0.2318050926976314,0.21997820150067607,0.9999862241772894,-0.005248948051544405,2.4298396557793573,0.21997853610792514
2023-04-19 07:16:00.064840,354.001945,15.89,886.21,54.94,96.0,2.0,0.0021476,1.64349,0.0606774,32.6917213,-103.074922,1164.50635,87.836717,6.90678097,-6.91760563,2.2602,42.8294,14671.2,25.9671,11798.0,-0.302754,-1.0,15.0,-1163.0,80.0,,0.0,,1.0681040144845348,0.014138070871330894,2.450265330381538,96.28698569677456,2.4284676026708696,-0.2677693194595364,0.4159806791999999,0.2318050926976314,0.21997820150067607,0.9999991462276084,-0.001306730291281457,2.4288154315930903,0.21997822223849237
2023-04-19 07:16:01.064449,355.001554,16.07,886.2,54.43,82.0,2.0,0.00243563,1.50619,0.0413321,32.6917221,-103.074906,1164.56995,87.9162973,6.46400661,-6.47458857,2.24685,41.5531,14658.6,25.9726,11793.0,-0.259523,-1.0,14.0,-1174.0,80.0,,0.0,,1.0674272204340218,0.014126825866595997,2.450265330381538,96.28698569677456,2.4284676026708696,-0.2677693194595364,0.4159806791999999,0.2318050926976314,0.21997820150067607,0.999998692528406,-0.0016170780681410036,2.4288974314122815,0.21997823325867058
2023-04-19 07:16:02.067484,356.004589,15.98,886.16,54.69,114.0,2.0,0.0806956,1.35976,0.015133,32.6917233,-103.07489,1164.71265,88.024543,6.62673912,-6.61969634,2.23876,40.7088,14658.9,25.9777,11813.0,-0.292474,-1.0,15.0,-1195.0,80.0,,0.0,,1.067711292785941,0.014132250086995318,2.450265330381538,96.28698569677456,2.4284676026708696,-0.2677693194595364,0.4159806791999999,0.2318050926976314,0.21997820150067607,0.9982436952018695,-0.059241243991977555,2.4400654609558625,0.2200208199258593
2023-04-19 07:16:03.064568,357.001673,15.98,886.13,54.82,72.0,2.0,0.219346,1.54307,-0.0856133,32.6917241,-103.074875,1164.77637,87.7307745,7.27682695,-7.20071089,2.23868,39.9681,14667.0,25.9841,11844.0,-0.321942,-1.0,14.0,-1209.0,80.0,,0.0,,1.0676751465608985,0.014132119417622858,2.450265330381538,96.28698569677456,2.4284676026708696,-0.2677693194595364,0.4159806791999999,0.2318050926976314,0.21997820150067607,0.9900473957847153,-0.14073433873757735,2.4419823638801943,0.22021861233087742
2023-04-19 07:16:04.064115,358.00122,15.79,886.1,55.49,78.0,2.0,0.161941,1.78681,-0.155028,32.6917235,-103.074858,1164.9856,87.8586922,6.85858847,-6.80689083,2.2479,42.8425,14682.1,25.9894,11861.0,-0.236766,-1.0,11.0,-1207.0,80.0,,0.0,,1.06834105408426,0.014143821728845334,2.450265330381538,96.28698569677456,2.4284676026708696,-0.2677693194595364,0.4159806791999999,0.2318050926976314,0.21997820150067607,0.9959181087997803,-0.09026140130016286,2.442724096133117,0.22007712458090017
2023-04-19 07:16:05.064413,359.00151800000003,15.81,886.14,55.42,78.0,2.0,0.121812,1.90971,-0.0243564,32.6917232,-103.074837,1165.05774,81.9626226,7.14361656,-7.04288119,2.24602,41.4866,14682.1,25.9949,11861.0,-0.153156,-1.0,11.0,-1201.0,80.0,,0.0,,1.0683153335334814,0.01414274970691033,2.450265330381538,96.28698569677456,2.4284676026708696,-0.2677693194595364,0.4159806791999999,0.2318050926976314,0.21997820150067607,0.9979718851568091,-0.06365623643104072,2.44058757858818,0.22002740822691222
2023-04-19 07:16:06.064271,360.001376,15.79,886.15,55.47,86.0,2.0,0.129936,1.94513,-0.160794,32.6917234,-103.074814,1164.91516,82.1617207,5.99485564,-6.2241593,2.23363,41.9928,14693.2,26.0015,11860.0,-0.200987,-1.0,13.0,-1193.0,80.0,,0.0,,1.0684013374074788,0.014144039898270419,2.450265330381538,96.28698569677456,2.4284676026708696,-0.2677693194595364,0.4159806791999999,0.2318050926976314,0.21997820150067607,0.9977762742932403,-0.06665213017976575,2.4409147523735415,0.2200321483325479
2023-04-19 07:16:07.063867,361.000972,15.54,886.15,56.39,98.0,2.0,0.213512,1.74326,-0.124454,32.6917253,-103.074797,1165.05713,82.0442001,7.63618092,-7.78012955,2.23335,41.5601,14712.0,26.0063,11851.0,-0.224441,-1.0,11.0,-1172.0,80.0,,0.0,,1.069326552462908,0.014159640803803126,2.450265330381538,96.28698569677456,2.4284676026708696,-0.2677693194595364,0.4159806791999999,0.2318050926976314,0.21997820150067607,0.9925828444066696,-0.12157013197971474,2.4430080321153116,0.22015762025176044
2023-04-19 07:16:08.064443,362.001548,15.86,886.18,55.17,114.0,2.0,0.183455,1.68784,-0.165728,32.6917263,-103.074779,1164.88281,82.0896544,5.51208461,-5.54334009,2.2291,41.8209,14719.6,26.0129,11841.0,-0.231282,-1.0,13.0,-1171.0,80.0,,0.0,,1.0681787252640513,0.014139808715983042,2.450265330381538,96.28698569677456,2.4284676026708696,-0.2677693194595364,0.4159806791999999,0.2318050926976314,0.21997820150067607,0.9941448344581008,-0.10805576393823446,2.443182541217514,0.22011995934218379
2023-04-19 07:16:09.064432,363.001537,15.64,886.15,56.06,77.0,2.0,0.196326,1.62355,-0.0342228,32.6917285,-103.074759,1164.74036,82.2191503,5.11633798,-5.29374313,2.22816,42.112,14690.1,26.0181,11798.0,-0.242834,-1.0,16.0,-1179.0,80.0,,0.0,,1.0689562742148861,0.014153396251100606,2.450265330381538,96.28698569677456,2.4284676026708696,-0.2677693194595364,0.4159806791999999,0.2318050926976314,0.21997820150067607,0.9927679228699483,-0.12004937034607216,2.4430502758596355,0.22015316128143264
2023-04-19 07:16:10.064024,364.001129,16.01,886.15,54.71,70.0,2.0,0.291904,1.52353,-0.0391355,32.6917323,-103.074742,1164.69458,82.0721024,6.91559449,-6.94731301,2.23316,42.4752,14648.4,26.0247,11798.0,-0.261305,-1.0,16.0,-1179.0,80.0,,0.0,,1.0675884715400363,0.014130339940901264,2.450265330381538,96.28698569677456,2.4284676026708696,-0.2677693194595364,0.4159806791999999,0.2318050926976314,0.21997820150067607,0.9821356327346503,-0.1881743843165378,2.4354718923529104,0.22040782521573374
2023-04-19 07:16:11.064582,365.001687,16.15,886.17,54.23,81.0,2.0,0.28017,1.7406,-0.0161626,32.691735,-103.074722,1164.79004,81.8993219,6.7212048,-6.5218257,2.23093,42.8602,14643.2,26.0302,11787.0,-0.287417,-1.0,16.0,-1193.0,80.0,,0.0,,1.0670959202761192,0.014121722780198409,2.450265330381538,96.28698569677456,2.4284676026708696,-0.2677693194595364,0.4159806791999999,0.2318050926976314,0.21997820150067607,0.9872920675342391,-0.15891624644436897,2.4401596955423126,0.2202846978296384
2023-04-19 07:16:12.067873,366.004978,16.23,886.17,54.02,108.0,2.0,0.215143,1.70789,-0.0891233,32.6917367,-103.074704,1164.75208,82.1134163,6.04084528,-6.20592051,2.23279,43.308,14639.0,26.0358,11799.0,-0.306657,-1.0,16.0,-1188.0,80.0,,0.0,,1.066800918293874,0.014116753809372589,2.450265330381538,96.28698569677456,2.4284676026708696,-0.2677693194595364,0.4159806791999999,0.2318050926976314,0.21997820150067607,0.9921589687743786,-0.12498232147212501,2.4428923435329812,0.220167828928507
2023-04-19 07:16:13.063798,367.000903,15.82,886.17,55.39,94.0,2.0,0.318109,1.80474,-0.0503239,32.69174,-103.074684,1164.73096,82.0885696,6.61779219,-6.78456016,2.23044,42.89,14669.8,26.0418,11807.0,-0.319624,-1.0,14.0,-1179.0,80.0,,0.0,,1.0683145300061643,0.014142257379997043,2.450265330381538,96.28698569677456,2.4284676026708696,-0.2677693194595364,0.4159806791999999,0.2318050926976314,0.21997820150067607,0.9848185157792776,-0.17358712791650402,2.438081167189524,0.22034385132365747
2023-04-19 07:16:14.063875,368.00098,16.13,886.18,54.34,94.0,2.0,0.296224,1.59816,-0.0948089,32.6917425,-103.074665,1164.63452,82.2026464,6.5693598,-6.8086191,2.22559,42.9136,14682.2,26.047,11825.0,-0.33993,-1.0,12.0,-1185.0,80.0,,0.0,,1.0671817387602442,0.014123009073844563,2.450265330381538,96.28698569677456,2.4284676026708696,-0.2677693194595364,0.4159806791999999,0.2318050926976314,0.21997820150067607,0.9832524213181663,-0.18224893956334356,2.436597324937954,0.22038121862338197
2023-04-19 07:16:15.063830,369.000935,15.95,886.2,54.96,125.0,2.0,0.283639,1.64565,0.0599239,32.6917443,-103.074651,1164.83215,81.8683068,7.39517478,-7.3772629,2.22958,42.9742,14697.8,26.0534,11840.0,-0.333923,-1.0,13.0,-1197.0,80.0,,0.0,,1.0678702894981937,0.014134291469457478,2.450265330381538,96.28698569677456,2.4284676026708696,-0.2677693194595364,0.4159806791999999,0.2318050926976314,0.21997820150067607,0.9854695150841324,-0.16985239132801438,2.4386620500360645,0.22032829899560646
2023-04-19 07:16:16.064261,370.001366,15.89,886.22,55.2,79.0,2.0,0.0234968,1.70585,-0.102159,32.691745,-103.074631,1164.60535,83.4988228,6.5422458,-6.78624579,2.22796,43.2686,14664.3,26.059,11851.0,-0.302412,-1.0,13.0,-1197.0,80.0,,0.0,,1.0681160669778997,0.01413811446728322,2.450265330381538,96.28698569677456,2.4284676026708696,-0.2677693194595364,0.4159806791999999,0.2318050926976314,0.21997820150067607,0.9999051485505978,-0.013772940935293047,2.4319252300201297,0.21998050528714155
2023-04-19 07:16:17.064625,371.00173,15.92,886.25,55.15,89.0,2.0,0.125181,1.56522,0.1224,32.6917444,-103.074615,1164.53625,85.7887914,6.35694092,-6.32083283,2.23046,43.6835,14600.1,26.0648,11854.0,-0.287922,-1.0,11.0,-1197.0,80.0,,0.0,,1.0680413704546947,0.01413637704189697,2.450265330381538,96.28698569677456,2.4284676026708696,-0.2677693194595364,0.4159806791999999,0.2318050926976314,0.21997820150067607,0.9968171311182846,-0.07972206162106282,2.442085230894258,0.22005537567547656
2023-04-19 07:16:18.063847,372.000952,16.28,886.22,53.83,74.0,2.0,-0.0627762,1.53681,0.047085,32.6917435,-103.074598,1164.49329,85.7673961,5.28357095,-5.23681491,2.22996,44.1009,14596.4,26.071,11851.0,-0.269107,-1.0,13.0,-1188.0,80.0,,0.0,,1.066676806133753,0.01411386718123265,2.450265330381538,96.28698569677456,2.4284676026708696,-0.2677693194595364,0.4159806791999999,0.2318050926976314,0.21997820150067607,0.999166747518418,0.040814343722101264,2.415515246971848,0.21999843154305537
2023-04-19 07:16:19.063778,373.000883,16.52,886.21,53.05,91.0,2.0,-0.173952,1.47824,0.0557195,32.6917425,-103.074583,1164.47888,85.7870745,5.34775525,-5.41176268,2.22511,43.4473,14670.0,26.0738,11843.0,-0.285846,-1.0,13.0,-1187.0,80.0,,0.0,,1.0657810071688818,0.0140989443614487,2.450265330381538,96.28698569677456,2.4284676026708696,-0.2677693194595364,0.4159806791999999,0.2318050926976314,0.21997820150067607,0.9931473754214846,0.11686868996192624,2.3805323763114465,0.22014401650555046
2023-04-19 07:16:20.064113,374.001218,16.55,886.22,52.93,67.0,2.0,-0.208012,1.40976,0.0694933,32.691742,-103.074568,1164.48486,85.6021452,5.35951321,-5.21945763,2.22428,44.1721,14722.8,26.0756,11843.0,-0.32878,-1.0,13.0,-1187.0,80.0,,0.0,,1.0656826648232383,0.01409713000354499,2.450265330381538,96.28698569677456,2.4284676026708696,-0.2677693194595364,0.4159806791999999,0.2318050926976314,0.21997820150067607,0.9892888817794461,0.1459709162387262,2.363369466181748,0.2202368253516059
2023-04-19 07:16:21.064252,375.001357,16.76,886.23,52.33,97.0,2.0,-0.187084,1.35925,0.0472522,32.6917409,-103.074551,1164.64343,85.7326527,5.65279931,-5.60836809,2.22362,43.9657,14778.5,26.0814,11826.0,-0.347695,-1.0,15.0,-1195.0,80.0,,0.0,,1.064922740340017,0.014084183278873817,2.450265330381538,96.28698569677456,2.4284676026708696,-0.2677693194595364,0.4159806791999999,0.2318050926976314,0.21997820150067607,0.9906604262293837,0.13635219067919627,2.369275817041188,0.2202038812797226
2023-04-19 07:16:22.064229,376.001334,16.73,886.23,52.3,99.0,2.0,-0.178532,0.616608,-0.071487,32.69174,-103.074536,1164.67004,85.9560034,4.16997189,-4.69338432,2.22326,44.2769,14796.5,26.0871,11804.0,-0.376318,-1.0,16.0,-1196.0,80.0,,0.0,,1.0650329503655798,0.014086037511903834,2.450265330381538,96.28698569677456,2.4284676026708696,-0.2677693194595364,0.4159806791999999,0.2318050926976314,0.21997820150067607,0.960547532080125,0.2781158726408495,2.258187664534106,0.22091558723516003
2023-04-19 07:16:23.064827,377.001932,16.17,886.27,54.25,88.0,2.0,-0.0458365,0.10942,-0.640082,32.6917409,-103.074535,1164.20398,85.8903738,4.59034817,-4.84368296,2.22032,44.8599,14802.7,26.0927,11800.0,-0.434906,-1.0,15.0,-1196.0,80.0,,0.0,,1.067142562777212,0.014120915016303425,2.450265330381538,96.28698569677456,2.4284676026708696,-0.2677693194595364,0.4159806791999999,0.2318050926976314,0.21997820150067607,0.9223425405992752,0.3863731846296716,2.13642009370478,0.22178382145791237
2023-04-19 07:16:24.064397,378.001502,16.24,886.29,54.14,77.0,2.0,0.0973289,-0.130648,-0.48294,32.6917431,-103.074536,1163.45569,85.6952913,7.28722394,-7.35885465,2.22341,45.3617,14771.5,26.099,11799.0,-0.466503,-1.0,14.0,-1185.0,80.0,,0.0,,1.0669085095133464,0.014116654371874949,2.450265330381538,96.28698569677456,2.4284676026708696,-0.2677693194595364,0.4159806791999999,0.2318050926976314,0.21997820150067607,0.8019318445165684,0.5974155310587885,1.78749595377241,0.22427086908588403
2023-04-19 07:16:25.063656,379.000761,16.06,886.36,54.63,75.0,2.0,-0.0861907,-0.0674537,-0.551866,32.6917427,-103.074537,1162.8446,85.6101729,6.82083799,-6.82032421,2.22911,45.0696,14674.1,26.1039,11816.0,-0.483396,-1.0,17.0,-1185.0,80.0,,0.0,,1.0676568553536963,0.014128144149229823,2.450265330381538,96.28698569677456,2.4284676026708696,-0.2677693194595364,0.4159806791999999,0.2318050926976314,0.21997820150067607,0.6163088775597038,-0.787504518997255,1.7075556915153927,0.22738526996137481
2023-04-19 07:16:26.064361,380.001466,16.21,886.39,54.12,84.0,2.0,0.0417609,-0.118888,-0.103421,32.6917403,-103.074537,1162.41553,85.9689866,4.29780711,-4.52845551,2.22935,45.7907,14567.0,26.1091,11827.0,-0.509328,-1.0,15.0,-1181.0,80.0,,0.0,,1.067139515119191,0.014118951991528376,2.450265330381538,96.28698569677456,2.4284676026708696,-0.2677693194595364,0.4159806791999999,0.2318050926976314,0.21997820150067607,0.9434863443492179,0.33141140298207766,2.2024842149768062,0.22130808999109186
2023-04-19 07:16:28.064497,382.001602,16.55,886.42,53.08,91.0,2.0,-0.205556,-0.91216,-0.000135005,32.6917391,-103.074549,1162.37988,85.6030663,6.40657983,-6.56890313,2.23132,45.689,14578.0,26.115,11845.0,-0.533706,-1.0,12.0,-1184.0,80.0,,0.0,,1.065923165526184,0.01409799659060853,2.450265330381538,96.28698569677456,2.4284676026708696,-0.2677693194595364,0.4159806791999999,0.2318050926976314,0.21997820150067607,0.9755364096069973,-0.21983792559767482,2.427924417685138,0.22056436413088448
2023-04-19 07:16:29.064090,383.001195,16.24,886.45,54.06,75.0,2.0,-0.513925,-0.965227,0.0879936,32.6917356,-103.07456,1162.23584,85.7437983,5.65494851,-5.82874735,2.22466,45.6795,14626.1,26.1198,11854.0,-0.571865,-1.0,12.0,-1199.0,80.0,,0.0,,1.0671011161787969,0.014117349697388546,2.450265330381538,96.28698569677456,2.4284676026708696,-0.2677693194595364,0.4159806791999999,0.2318050926976314,0.21997820150067607,0.8826803198909909,-0.4699738853140012,2.269405147804715,0.2226445352091136
2023-04-19 07:16:30.064014,384.001119,16.41,886.43,53.51,98.0,2.0,-0.299643,-1.30736,0.132345,32.691732,-103.074572,1162.31506,86.7982674,3.55396098,-3.72558289,2.22487,46.1037,14662.7,26.1254,11858.0,-0.532143,-1.0,10.0,-1199.0,80.0,,0.0,,1.0664505619064018,0.014106714626363074,2.450265330381538,96.28698569677456,2.4284676026708696,-0.2677693194595364,0.4159806791999999,0.2318050926976314,0.21997820150067607,0.9747258788747127,-0.2234042547757738,2.4269110235978038,0.22058351017643058
2023-04-19 07:16:31.064129,385.001234,16.01,886.41,55.01,112.0,2.0,-0.0883645,-1.44396,0.0141792,32.6917314,-103.074585,1162.42249,87.5088557,5.8284138,-5.89715521,2.22682,46.2955,14677.8,26.1302,11858.0,-0.624054,-1.0,10.0,-1199.0,80.0,,0.0,,1.067901706322636,0.014131472213802555,2.450265330381538,96.28698569677456,2.4284676026708696,-0.2677693194595364,0.4159806791999999,0.2318050926976314,0.21997820150067607,0.9981327708873627,-0.06108168040186399,2.440288897256718,0.22002350881895621
2023-04-19 07:16:32.064499,386.001604,16.01,886.35,54.94,86.0,2.0,0.185052,-1.365,-0.00680088,32.6917322,-103.074598,1162.65576,88.439344,6.98520061,-7.00462249,2.22576,46.4544,14692.9,26.1355,11843.0,-0.608011,-1.0,11.0,-1178.0,80.0,,0.0,,1.0678294213728052,0.014131210898627102,2.450265330381538,96.28698569677456,2.4284676026708696,-0.2677693194595364,0.4159806791999999,0.2318050926976314,0.21997820150067607,0.9909352530493725,0.13434032999801715,2.3704819396353223,0.2201972739424035
2023-04-19 07:16:33.063756,387.000861,16.36,886.38,53.83,77.0,2.0,0.171666,-1.36149,-0.113668,32.6917324,-103.074612,1162.43091,90.310475,3.70652499,-3.70320843,2.22538,46.8921,14629.3,26.1398,11812.0,-0.577988,-1.0,14.0,-1178.0,80.0,,0.0,,1.0665745792622252,0.014109598311939227,2.450265330381538,96.28698569677456,2.4284676026708696,-0.2677693194595364,0.4159806791999999,0.2318050926976314,0.21997820150067607,0.9921445920132343,0.12509639698605546,2.375894021781451,0.22016817509556846
