Timestamp,S,Um,Vm,Wm,Ur,Vr,U,V,U_err,S_err,W_err,V_err,W,Sc,WD,T,P,H,MD,Sts,Vx,Vy,Vz,Lat,Lon,Alt,Yaw,Roll,Pitch,CH4,C2H6,H20,T_a,Batt,R,C2C1,Power,Current,SOC,Lat_a,Lon_a,TS,Rho,Rho_err,V_avg,U_avg,W_avg,S_avg,WD_avg,V_avg_err,U_avg_err,W_avg_err,S_avg_err,Nx,Ny,cross_wind,cross_wind_err
2023-04-19 07:14:29.063674,3.43,1.03,3.26,-0.31,-0.2026510662093456,3.4128335068333198,-0.20244923520934557,3.41184814383332,0.14222348629758286,0.0,-0.0,0.2793428588928976,-0.3100189218,3.4178492432252945,176.60421524572712,16.98,887.2,52.89,20.0,1.0,-0.000985363,0.000201831,1.89218e-05,32.6910984,-103.075249,1155.33179,-20.9321625,0.52786915,1.071444,2.21974,23.3978,15386.0,25.4482,11825.0,-0.69604,-1.0,14.0,-1190.0,80.0,,0.0,,1.0652799295562154,0.014074788036679815,3.959436438349454,-0.21235609577406062,-0.30675701035999997,4.035114877247307,176.8370280863127,0.2848362065895883,0.15405654675164743,0.0,0.0,0.20066293008257194,0.979660343430659,0.586475271479294,0.1613833790420137
2023-04-19 07:14:30.063951,3.8,1.27,3.57,-0.33,-0.08048501789065465,3.7883138943196273,-0.08013673989065466,3.7841469743196274,0.15050773007443308,0.0,-0.0,0.2824270825761552,-0.32345397000000004,3.784995405589377,178.78683073830655,17.16,887.19,52.36,25.0,1.0,-0.00416692,0.000348278,-0.00654603,32.6910984,-103.075249,1155.28918,-20.7997243,0.523900359,1.04986864,2.22097,22.8642,15393.2,25.4561,11829.0,-0.694574,-1.0,14.0,-1184.0,80.0,,0.0,,1.0646074276100121,0.014063644599690518,3.664500171268112,0.1727526138843042,-0.309073456,3.717291904382152,183.53021923155364,0.28077314045667945,0.1590714796561563,0.0,0.0,0.08329121293725078,0.9965252499798696,0.47737300580941644,0.16023449946404916
2023-04-19 07:14:31.064610,4.61,2.44,3.92,-0.09,0.8925107475875917,4.530278641037507,0.8822819475875917,4.529805360037507,0.2018373787723464,0.0,-0.0,0.28629669705629157,-0.0706,4.6149277388561005,191.02165644608942,16.17,887.17,55.76,12.0,1.0,-0.000473281,-0.0102288,-0.0194,32.6910984,-103.075249,1155.2207,-20.7550374,0.516099548,1.17856801,2.22025,23.7572,15400.6,25.4632,11867.0,-0.634719,-1.0,12.0,-1200.0,80.0,,0.0,,1.0682262373983766,0.014124829926830203,4.6775560836295345,0.8434773824620947,-0.05989863600000002,4.766200236062906,189.45808878443705,0.2886245892063394,0.20485452711138968,0.0,0.0,0.998931284446839,-0.04622000598646073,4.633571577025334,0.28847156172411564
2023-04-19 07:14:32.063983,3.9,0.65,3.83,-0.27,-0.7119460271344921,3.818970130080545,-0.7531226271344921,3.926816130080545,0.13536689099093385,0.0,-0.0,0.28518122893447023,-0.3342377,3.998384500140364,169.14309968626077,16.7,887.13,53.91,32.0,1.0,0.107846,-0.0411766,0.0642377,32.6910988,-103.075249,1155.0929,-20.1921142,1.06808979,3.3515363,2.22436,23.3974,15382.5,25.4708,11864.0,-0.60893,-1.0,12.0,-1209.0,80.0,,0.0,,1.0662248762924604,0.01409178753112965,4.427905177670552,0.42056062260535443,-0.303016002,4.492158712500383,185.43650654699334,0.2853045597343933,0.18218870682789406,0.0,0.0,0.3566942801833493,0.9342211678636287,1.972305086077152,0.19830786441543105
2023-04-19 07:14:34.064047,3.98,-0.78,3.9,-0.1,-1.973825134913076,3.4528849295604074,-2.104148134913076,3.8379569295604075,0.14464974099977626,0.0,-0.0,0.28585051330716327,-0.760177,4.37691132727394,151.26637892509933,16.79,887.01,53.72,59.0,2.0,0.385072,-0.130323,0.660177,32.6911078,-103.07525,1156.99231,-18.4443051,1.13056469,-3.17296783,2.2226,23.9418,15363.9,25.4785,11841.0,-0.49464,-1.0,11.0,-1198.0,80.0,,0.0,,1.06574972946535,0.014085702436079565,4.1564630579819895,-1.857023644482847,-0.9834676,4.564392181824359,155.68287410978937,0.28905958622698336,0.1403118916997121,0.0,0.0,0.3205761751600125,0.9472227382827003,-0.4265519922610064,0.16202186459366913
2023-04-19 07:14:35.063685,5.16,0.09,4.96,-1.44,-1.4854830553572902,4.733184983945416,-1.4913091653572903,5.084847983945417,0.13601587937377788,0.0,-0.0,0.3018018302735365,-2.55075,5.299026518759122,163.6543833126342,16.38,886.88,54.96,28.0,2.0,0.351663,-0.00582611,1.11075,32.6911116,-103.075251,1158.09998,-18.4636942,1.03721972,-3.91624163,2.22446,23.6885,15360.3,25.4857,11841.0,-0.411174,-1.0,11.0,-1198.0,80.0,,0.0,,1.0671025077757585,0.014110528383428663,4.996578373312234,-1.5847577696869295,-2.0389308,5.2654702191685665,162.1415370136794,0.30078437763536603,0.13924525235403457,0.0,0.0,0.016565036985845945,0.9998627903615863,-1.5017718200897823,0.13931527280369818
2023-04-19 07:14:36.063641,4.82,0.36,4.78,-0.51,-1.1893416566883954,4.643647965087977,-1.3710286566883954,5.178739965087977,0.13695085089355,0.0,-0.0,0.2987222265824381,-1.185036,5.357151034221474,165.17159980252316,16.41,886.82,54.99,77.0,2.0,0.535092,-0.181687,0.675036,32.6911155,-103.075252,1159.1283,-18.6729432,0.270067501,-0.107744844,2.22573,23.3978,15345.6,25.4934,11826.0,-0.348556,-1.0,11.0,-1179.0,80.0,,0.0,,1.066919765023561,0.014108407123979285,5.171128747174991,-1.961234232222407,-1.041445,5.5387704460287255,159.23419522827618,0.3020100784520109,0.13663416019359903,0.0,0.0,0.3215152193228599,0.9469044110910949,-0.1945047523795409,0.1617641018356642
2023-04-19 07:14:37.064390,5.77,0.08,5.69,-0.96,-1.746182617985648,5.416026796891314,-2.113137617985648,6.5148867968913144,0.13512219415934745,0.0,-0.0,0.31400972541925315,-1.885974,6.849021869497485,162.02925794248324,16.19,886.7,55.19,62.0,2.0,1.09886,-0.366955,0.925974,32.6911238,-103.075257,1160.0636,-18.6753655,0.978214531,-1.43510652,2.22669,23.431,15338.8,25.5007,11805.0,-0.30136,-1.0,13.0,-1159.0,80.0,,0.0,,1.0675865187255005,0.014121542325134783,6.100259655267541,-2.2219564627539037,-1.5413314,6.4947881582597775,159.95067386233114,0.3092298595130988,0.13541215896828995,0.0,0.0,0.3167469193013554,0.9485100890939963,-0.175309669705344,0.1615255873040449
2023-04-19 07:14:38.064620,5.31,-0.34,5.25,-0.69,-2.003109790899242,4.86473546717636,-2.302106790899242,6.07807546717636,0.13673888742691317,0.0,-0.0,0.30638161202317815,-1.2870529999999998,6.49943821121453,159.25552334686097,15.97,886.64,55.98,45.0,2.0,1.21334,-0.298997,0.597053,32.6911341,-103.075259,1160.67212,-18.6745588,0.191294371,-2.14788036,2.22896,23.5484,15334.0,25.5089,11834.0,-0.162063,-1.0,14.0,-1162.0,80.0,,0.0,,1.0683265820833676,0.014134963743225506,5.999704178777103,-2.46558276885897,-1.1414506,6.488582943299238,157.6188120085471,0.3055182318991948,0.13913017796457902,0.0,0.0,0.23926704256994158,0.970953800311752,-0.9584354842562719,0.1535991733663451
2023-04-19 07:14:39.064335,4.95,0.12,4.84,-1.04,-1.433584770665956,4.624373979828474,-1.7884997706659558,5.844273979828474,0.1353695220678473,0.0,-0.0,0.2996956958852305,-1.924803,6.111813951763611,162.98452732124184,16.22,886.55,55.7,21.0,2.0,1.2199,-0.354915,0.884803,32.6911466,-103.075263,1161.59265,-18.6440277,-0.357647075,-5.05692427,2.23138,23.6045,15326.6,25.5159,11863.0,-0.166749,-1.0,14.0,-1196.0,80.0,,0.0,,1.0672952570681264,0.01411902643238669,5.883669910638185,-1.9265920756018855,-2.1121689999999997,6.192596311619109,161.86620679162314,0.30092750033328947,0.13533119754869077,0.0,0.0,0.2793549398830447,0.9601879074238232,-0.20625815935348557,0.1547653198210051
2023-04-19 07:14:40.064260,5.24,-0.04,4.99,-1.61,-1.6396158231308382,4.713105128526096,-1.8233548231308383,5.634308128526096,0.13485626087399172,0.0,-0.0,0.3020297586480325,-2.2493920000000003,5.921997205184222,162.06756569598275,16.09,886.44,55.6,36.0,2.0,0.921203,-0.183739,0.639392,32.6911574,-103.075266,1162.4248,-18.7227143,-0.27298327,-5.60302524,2.22987,23.7757,15336.1,25.5223,11874.0,-0.149268,-1.0,8.0,-1210.0,80.0,,0.0,,1.0676424711599362,0.01412662679894065,5.620180732045795,-1.2423622468201834,-2.0695592,5.781973086486062,167.17559897242907,0.29934921928966063,0.14339237757620504,0.0,0.0,0.1956026589198694,0.9806832311319885,-0.11904152764963905,0.15232596723174033
2023-04-19 07:14:41.064525,5.59,0.56,5.37,-1.46,-1.1891434495420177,5.2665394574057185,-1.2933164495420177,5.875354457405718,0.13960704658489884,0.0,-0.0,0.3084163317112607,-2.4336219999999997,6.016016741899345,167.58571264986236,16.32,886.38,54.82,33.0,2.0,0.608815,-0.104173,0.973622,32.6911666,-103.075269,1163.39087,-18.6770378,-0.407958923,-4.7858513,2.22729,23.3461,15329.7,25.5288,11871.0,-0.0833894,-1.0,11.0,-1199.0,80.0,,0.0,,1.0667219623525992,0.014112079815176393,5.47416423249774,-0.6561035578292779,-2.1761472,5.531599559872468,173.27908273168296,0.29886944033795887,0.1521227097965124,0.0,0.0,0.16865666447936228,0.9856748599445437,0.2765494977928068,0.15818931626769853
2023-04-19 07:14:42.064782,4.95,0.7,4.89,-0.4,-0.9175655020275448,4.853882317226998,-1.056119502027545,5.358142317226998,0.14146277710150224,0.0,-0.0,0.30030554110780733,-1.0973549999999999,5.461234063306719,168.8496181287384,16.7,886.35,53.4,34.0,2.0,0.50426,-0.138554,0.697355,32.691172,-103.07527,1164.02905,-18.8512342,-0.726502722,-2.34726834,2.23018,23.2229,15331.8,25.5357,11805.0,-0.0648321,-1.0,11.0,-1171.0,80.0,,0.0,,1.0652874089500097,0.014088411446580783,5.338506261735311,0.13189534116726115,-0.9881610000000001,5.393823121087484,181.3914783189513,0.29362721313010365,0.17942557329448233,0.0,0.0,0.26494758668840324,0.9642628149565817,1.5416061235213019,0.18969931292160266
2023-04-19 07:14:43.063787,5.26,2.54,4.61,0.12,0.9446264205447577,5.177970734332979,0.6750414205447577,6.175302734332979,0.21036444387461634,0.0,0.0,0.2961804127744769,0.1528433,6.21208860047178,186.23840904737597,16.42,886.26,54.39,9.0,2.0,0.997332,-0.269585,-0.0328433,32.6911791,-103.075273,1163.70544,-18.5148411,0.71437886,1.68003644,2.23071,24.1144,15343.6,25.542,11806.0,0.12339,-1.0,11.0,-1163.0,80.0,,0.0,,1.0662092157682799,0.014105357128858435,6.01691269506604,0.6278733378612487,0.053915599999999994,6.05373168202362,185.87275311921334,0.29373423654950004,0.2064447502972994,0.0,0.0,0.26094132800366004,0.9653546619453839,2.1761816429481793,0.21352350162354874
2023-04-19 07:14:44.064316,4.39,0.79,4.17,-1.13,-0.593651585716454,4.202449023459575,-0.841928585716454,5.626999023459575,0.14366768804672084,0.0,-0.0,0.289580287746505,-1.903819,5.689636346328429,171.4903596457691,16.17,886.28,55.33,47.0,2.0,1.42455,-0.248277,0.773819,32.6911922,-103.075275,1164.34399,-18.7680484,-0.746268954,-2.94143497,2.23298,23.7463,15345.5,25.549,11837.0,0.224834,-1.0,14.0,-1178.0,80.0,,0.0,,1.067154603606336,0.014120958499439224,6.046926554036693,-0.20355861948511214,-1.3179698,6.095941291280285,177.82859984681107,0.2929116758735188,0.17104060939721338,0.0,0.0,0.171696371193956,0.9851499155554079,0.8376995894081397,0.1758457809959543
2023-04-19 07:14:45.064566,5.73,1.84,5.43,0.05,-0.012370227531990352,5.733266693384393,-0.4921592275319904,7.031996693384393,0.17800277035647977,0.0,0.0,0.30919705964228167,-0.467417,7.049198408401761,175.996480097389,16.05,886.21,55.78,25.0,2.0,1.29873,-0.479789,0.517417,32.6912032,-103.075279,1165.03418,-18.8429937,-1.53783281,-2.38315335,2.23038,23.9009,15337.8,25.555,11869.0,0.241325,-1.0,11.0,-1203.0,80.0,,0.0,,1.0675130855691908,0.014128113107534028,6.506935430302872,-0.6282435813440236,-1.0090294,6.539116639552077,174.46203109639814,0.3014542929786493,0.16521375700732863,0.0,0.0,0.34653801780129195,0.9380359279997496,1.6655854551422264,0.18689759522865648
2023-04-19 07:14:46.064336,4.84,0.98,4.56,-1.28,-0.5366843582905322,4.633138234454728,-1.1750733582905322,6.101828234454729,0.1484122379024118,0.0,-0.0,0.29528472620390317,-1.597695,6.213944415598927,169.09957945970731,16.2,886.15,55.22,25.0,2.0,1.46869,-0.638389,0.317695,32.6912143,-103.075284,1165.43909,-18.7365441,-1.05901596,-3.09021945,2.23108,23.9265,15338.1,25.5622,11872.0,0.315205,-1.0,13.0,-1204.0,80.0,,0.0,,1.0668874457595194,0.01411852982384894,6.247793790232167,-1.1132731292508236,-1.5466686,6.357479372180452,169.82531997463533,0.29769804340050643,0.15331334602240648,0.0,0.0,0.39863584955949716,0.9171092952565566,1.4696014504464665,0.18399212015546113
2023-04-19 07:14:47.063809,5.2,1.84,4.76,-1.02,0.20356535904035478,5.099192205104527,-0.2930366409596452,6.612572205104526,0.1779901695833908,0.0,-0.0,0.2982726897813364,-1.5831110000000002,6.619061990997354,177.46259330600236,16.25,886.11,55.07,33.0,2.0,1.51338,-0.496602,0.563111,32.6912292,-103.075293,1165.94849,-18.8481433,-0.211637527,-3.78582477,2.23731,24.3594,15323.2,25.568,11857.0,0.538929,-1.0,9.0,-1198.0,80.0,,0.0,,1.0666549682784667,0.014115251448050304,6.618752205683281,-0.2895231900476495,-1.4677232000000002,6.67390621495971,177.33263280807597,0.2992046853999636,0.1828512386076103,0.0,0.0,0.3117841275565696,0.950152965476501,1.7885305643640916,0.19719771158102148
2023-04-19 07:14:48.064744,5.28,2.36,4.69,-0.54,0.8163903724446953,5.186444520071492,0.36817037244469525,6.572704520071492,0.2031495027386817,0.0,-0.0,0.29795728596860455,-0.68498,6.583007985056246,183.20607553707174,16.47,886.05,54.36,12.0,2.0,1.38626,-0.44822,0.14498,32.6912425,-103.075301,1166.19141,-17.7660205,0.580824655,-3.36762343,2.23447,23.7365,15319.1,25.5743,11836.0,0.550317,-1.0,11.0,-1175.0,80.0,,0.0,,1.065772549905722,0.014101347921749647,6.601809726006044,0.19703471228189212,-0.9335671400000001,6.614826961706543,181.70916237002382,0.2997162751737589,0.19587811324462065,0.0,0.0,0.3076488630039277,0.9514999616880657,2.21851777716147,0.2079398101176511
2023-04-19 07:14:49.064074,5.71,-0.0,5.59,-1.15,-1.40590835003629,5.410316230249229,-1.8147213500362902,6.8621462302492295,0.15174455367071493,0.0,-0.0,0.319471120148683,-1.1090159,7.098046524474269,165.18701287890235,15.89,886.01,56.33,62.0,2.0,1.45183,-0.408813,-0.0409841,32.6912545,-103.075307,1166.40283,-14.5665395,-1.3794918,-3.70067812,2.23643,24.9341,15289.2,25.5807,11817.0,0.57542,-1.0,10.0,-1172.0,80.0,,0.0,,1.0678629646172384,0.014137199027364704,6.848493249388794,-1.211823812437193,-0.9894086799999998,7.040825640333525,170.18743899224836,0.31625013043417394,0.1657905978627823,0.0,0.0,0.2710440482369414,0.9625669451603512,0.6897817894274643,0.18114843402891026
2023-04-19 07:14:50.064350,6.39,0.67,6.34,-0.52,-0.9310407305111155,6.306953556046637,-1.4991417305111154,7.794783556046637,0.1576614639908443,0.0,-0.0,0.3373318710186715,-0.361089,7.937636714650962,169.11344589297497,16.06,885.97,55.61,73.0,2.0,1.48783,-0.568101,-0.158911,32.6912688,-103.075315,1166.57019,-14.4299557,-1.01380137,-2.70611757,2.23458,24.4431,15260.1,25.5875,11803.0,0.627364,-1.0,12.0,-1166.0,80.0,,0.0,,1.0671870844100753,0.014126446700592973,7.205554571915448,-0.8850916691706221,-0.336285814,7.303761544781812,173.19810996324753,0.32048673279974654,0.17153965084619235,0.0,0.0,0.3567127749392331,0.9342141061850608,1.7434482437179608,0.19685284452767518
2023-04-19 07:14:51.064477,4.97,-0.19,4.87,-0.99,-1.4032774592520691,4.667313185587084,-1.8794764592520692,6.276203185587084,0.15245306340651638,0.0,-0.0,0.3040383774751859,-0.862013,6.55157677110298,163.32910606387753,15.63,886.02,57.29,26.0,2.0,1.60889,-0.476199,-0.127987,32.691282,-103.075322,1166.46899,-14.4997396,0.593922946,-4.33434557,2.23556,24.2489,15223.8,25.5936,11834.0,0.651955,-1.0,13.0,-1172.0,80.0,,0.0,,1.0688364670186603,0.01415345237558045,6.717869798846268,-1.3611701937232688,-0.55866258,6.889931905457148,168.64355342521813,0.3111149815088775,0.1599000739281506,0.0,0.0,0.2838093609999712,0.9588807259554173,0.6013944713853205,0.17693221003748977
2023-04-19 07:14:52.064692,5.77,-0.02,5.73,-0.61,-1.4548234562925988,5.542272883124834,-2.1573384562925986,7.031372883124835,0.15198425920163317,0.0,-0.0,0.3227537305284377,-0.444109,7.354883672536377,162.94314306309087,15.78,886.02,56.73,45.0,2.0,1.4891,-0.702515,-0.165891,32.6912948,-103.075329,1166.43103,-14.5080953,-0.387930715,-3.57744095,2.24069,24.2936,15210.3,25.5997,11862.0,0.721567,0.0457894,14.0,-1185.0,80.0,,0.0,,1.0682815732033666,0.01414409598899665,6.892407328206055,-2.145378539418889,-0.5545617199999999,7.2188283087029195,162.7196109529047,0.32014708031125505,0.15244527199430924,0.0,0.0,0.4266729960458778,0.90440596771872,1.0005109306281266,0.19408206305786738
2023-04-19 07:14:53.064228,5.61,2.23,5.11,-0.58,0.8933310785116508,5.503358936519152,0.38170607851165084,6.925948936519152,0.2041769717711397,0.0,-0.0,0.3092493970248562,-0.565197,6.9364593418864295,183.15452006752682,16.02,886.02,55.86,31.0,2.0,1.42259,-0.511625,-0.014803,32.6913075,-103.075337,1166.33472,-14.3563184,1.40289878,-2.51812033,2.23813,24.621,15198.1,25.606,11862.0,0.712403,0.0464743,14.0,-1185.0,80.0,,0.0,,1.0673949405043703,0.014129151863185816,6.690245745691994,-0.34767241833620594,-0.5405598599999999,6.729795068592223,177.02544005716976,0.30799673258032473,0.18068881178206891,0.0,0.0,0.33842233059907045,0.9409943284376869,1.9369707837290162,0.19943355588874412
2023-04-19 07:14:54.064673,5.01,0.45,4.98,-0.35,-0.47212538092983913,4.9779511472775475,-1.021875380929839,6.2649011472775475,0.16955376124975188,0.0,-0.0,0.31073838626602623,-0.34218623,6.347693729167314,170.73600026874675,16.49,886.1,54.22,16.0,2.0,1.28695,-0.54975,-0.00781377,32.6913198,-103.075342,1166.34485,-10.581222,-0.14689847,-2.76683697,2.23975,25.1554,15185.5,25.6117,11873.0,0.711364,0.0502296,12.0,-1205.0,80.0,,0.0,,1.0657590946247275,0.014100325714526818,6.372677465331529,-0.7876754654675528,-0.18977912339999997,6.4439714012799785,173.10421166299278,0.3114690834942194,0.17376131969992273,0.0,0.0,0.39283239091523686,0.9196100872912489,1.7790398216820447,0.20125723937308226
2023-04-19 07:14:55.064216,5.59,-0.1,5.58,-0.29,0.37547542615920393,5.56825091068556,-0.036771573840796046,6.99962091068556,0.22205329857943643,0.0,-0.0,0.3560359333026371,-0.32614119999999996,6.999717497295822,179.69900704155788,16.26,886.08,54.97,34.0,2.0,1.43137,-0.412247,0.0361412,32.6913315,-103.075347,1166.22266,4.88439574,-0.830306626,-1.893431,2.24014,25.2051,15221.6,25.6183,11873.0,0.752867,0.0605968,12.0,-1207.0,80.0,,0.0,,1.0665820008352918,0.014114500392210318,7.085968995819104,-0.09942317332223075,-0.274552262,7.087906525563929,179.16482223119567,0.3580437684209254,0.21709850006398274,0.0,0.0,0.27675889614220117,0.9609393911200385,1.8655653137452703,0.23095640971943465
2023-04-19 07:14:56.064408,6.39,-0.3,6.38,-0.23,0.25270032289177935,6.38204846008007,0.0014043228917793305,7.88385846008007,0.22265819635995568,0.0,-0.0,0.3935733703516983,-0.17797870000000002,7.883858585153521,180.0102058876791,15.69,886.06,56.92,48.0,2.0,1.50181,-0.251296,-0.0520213,32.691345,-103.075351,1166.33679,4.95964575,3.23321296,-1.16442827,2.24145,24.6557,15237.7,25.6244,11870.0,0.781802,0.0638045,13.0,-1201.0,80.0,,0.0,,1.0686626836877768,0.01414988300158336,8.007770990103964,0.05724930427383024,-0.247017372,8.009387315690638,180.3915112679915,0.3995120888071896,0.22288522845768283,0.0,0.0,0.1650343155213628,0.986287825485236,1.378021296026412,0.22950374956930045
2023-04-19 07:14:57.064176,6.36,-0.4,6.3,-0.74,0.19131335508130648,6.30978598687527,0.06130335508130649,8.132845986875271,0.22422993221535345,0.0,-0.0,0.39084649705296837,-0.6924677,8.133077028257965,180.43187304930126,15.76,886.06,56.76,77.0,2.0,1.82306,-0.13001,-0.0475323,32.6913584,-103.07535,1166.37732,5.36963257,1.42685341,-2.12571486,2.24294,25.6872,15202.9,25.6306,11841.0,0.814331,0.0751778,10.0,-1179.0,80.0,,0.0,,1.0684037574205718,0.014145517354373171,8.112967252821855,0.0031036597820252336,-0.16343457,8.113425312653622,180.01266099041771,0.38743715639809617,0.2244817719398382,0.0,0.0,0.0711335112885038,0.9974668032429792,0.5801996452629956,0.22560280125245716
2023-04-19 07:14:58.063714,6.47,-0.52,6.44,-0.15,0.09500468125737915,6.460261148787964,0.14826298125737916,8.553451148787964,0.22499769631396682,0.0,-0.0,0.3978011386995714,-0.2159817,8.55473602551905,180.99304857309374,15.61,886.04,57.24,34.0,2.0,2.09319,0.0532583,0.0659817,32.6913773,-103.075348,1166.21216,5.45888381,1.54723662,-3.16453395,2.24399,25.033,15176.2,25.6364,11817.0,0.838792,0.0795192,12.0,-1169.0,80.0,,0.0,,1.068934624778408,0.01415478825267475,8.465696794242808,0.16142199242598446,-0.32775462,8.468625337344925,181.10434618167727,0.3957708673587514,0.2246530392067782,0.0,0.0,0.025435373408606965,-0.9996764685534839,0.05395839179033737,0.22480585563312633
2023-04-19 07:14:59.063894,6.18,-0.23,6.16,-0.37,0.3489585780488277,6.154407194101325,0.5548835780488277,8.107827194101326,0.22378606352701097,0.0,-0.0,0.38420502167748716,-0.38420519999999997,8.126792577308544,183.91510441279326,15.56,886.06,57.36,37.0,2.0,1.95342,0.205925,0.0142052,32.691394,-103.075344,1166.36707,5.38352744,2.96275598,-4.14718962,2.24181,25.8931,15164.2,25.6425,11827.0,0.835594,0.0881154,15.0,-1186.0,80.0,,0.0,,1.0691438798669164,0.01415799789375487,7.942505140308055,0.3717500920999713,-0.44111254200000005,7.9524471862847195,182.68023403272244,0.3757867076893564,0.2241646630655672,0.0,0.0,0.1048367675880394,-0.994489442961408,0.4629650234479313,0.22638369845267126
2023-04-19 07:15:00.064244,6.02,-0.53,5.99,-0.15,0.030672254980913638,6.013323474816101,0.44324325498091366,7.9713134748161005,0.22471474828628346,0.0,-0.0,0.3760659986935354,-0.0641119,7.983627189246176,183.18264266777385,15.6,886.06,57.27,72.0,2.0,1.95799,0.412571,-0.0858881,32.6914142,-103.075337,1166.43347,5.34865559,1.21676585,-4.5378902,2.2475,25.9495,15154.9,25.6502,11820.0,0.860302,0.0959654,16.0,-1172.0,80.0,,0.0,,1.0689957733554196,0.01415549999769055,7.816240318751094,0.5849503539790006,-0.31471543999999996,7.8411618677932395,184.255131766342,0.3698680066846152,0.22427318275106742,0.0,0.0,0.20618398787654238,-0.9785132411691351,1.0392019323264925,0.2323271387821842
2023-04-19 07:15:01.064629,5.84,-0.11,5.83,-0.35,0.30443015724418987,5.823085288690204,0.7664241572441899,7.637165288690204,0.21953281119397572,0.0,-0.0,0.36584914377566,-0.23174399999999998,7.675526016865684,185.73070456339462,15.36,886.06,58.07,54.0,2.0,1.81408,0.461994,-0.118256,32.6914339,-103.07533,1166.4696,4.0736157,1.90637065,-5.77300975,2.2443,25.8496,15160.2,25.6594,11862.0,0.857253,0.098523,14.0,-1186.0,80.0,,0.0,,1.0698850284439965,0.014170500809112228,7.4070642079393165,0.6955794446795418,-0.21968595999999999,7.440307071146293,185.3650706061293,0.35635868970333834,0.21980950239588282,0.0,0.0,0.24679375466991768,-0.9690680278782933,1.1539533862702218,0.2304519605498397
2023-04-19 07:15:02.064838,5.26,0.12,5.26,-0.09,0.3874172439659454,5.247085655778627,0.5814022439659454,6.921255655778627,0.2158624995683968,0.0,-0.0,0.33857461818763623,0.010929000000000008,6.945632327004955,184.80171119394856,15.94,886.07,55.92,49.0,2.0,1.67417,0.193985,-0.100929,32.6914528,-103.075323,1166.51282,2.91585563,0.484307834,-4.09901199,2.2421,26.3609,15158.8,25.6651,11873.0,0.86691,0.11381,11.0,-1208.0,80.0,,0.0,,1.0677505732092414,0.014134347521676778,6.995944422579717,0.44977031733614103,-0.14353559999999999,7.010822734639476,183.6711776888238,0.34163898679647653,0.21589127481604686,0.0,0.0,0.1150992875249363,-0.9933539922964281,0.35844707826069017,0.2180317054432272
2023-04-19 07:15:03.064608,4.85,-0.11,4.84,-0.27,0.1328086041923326,4.839427845794633,0.3409876041923326,6.468127845794633,0.21571567905712252,0.0,-0.0,0.32081645884411664,-0.1709776,6.477109723924457,183.0177327889344,15.97,886.08,55.81,41.0,2.0,1.6287,0.208179,-0.0990224,32.6914672,-103.075321,1166.44885,2.8739284,3.07955848,-3.76845458,2.24002,25.934,15168.0,25.6713,11873.0,0.855558,0.118872,11.0,-1208.0,80.0,,0.0,,1.0676518292118902,0.014132523921411852,6.229608155625689,0.05994374887003266,-0.049950020000000005,6.232112087193056,180.52236090844366,0.3101098434796602,0.21634988856744025,0.0,0.0,0.12678760496619362,-0.9919298882617342,0.730377101811007,0.21817597157990717
2023-04-19 07:15:04.064453,6.29,-0.22,6.28,-0.27,0.1138769948379175,6.282820388173348,0.2971329948379175,7.731770388173348,0.21645188776180463,0.0,-0.0,0.3838123826497874,-0.26651620000000004,7.737477712540152,182.2008016427502,16.27,886.06,54.73,49.0,2.0,1.44895,0.183256,-0.0034838,32.6914825,-103.075318,1166.37402,3.04473679,2.27670911,-4.50439831,2.24404,26.217,15172.7,25.6773,11871.0,0.885659,0.134287,12.0,-1209.0,80.0,,0.0,,1.0665210751032321,0.014113792853899475,7.035046166221053,0.021129158161978405,0.12321042599999998,7.038304029158401,180.08033442242169,0.35168401663700555,0.21768089747254873,0.0,0.0,0.12547546639166268,-0.9920967227714215,0.8617635302260473,0.22042276433449048
2023-04-19 07:15:05.064092,6.61,-0.28,6.6,-0.29,1.4432979890271969,6.44633934220578,1.516604789027197,7.71331934220578,0.250314476953131,0.0,-0.0,0.4312223462579255,-0.27919289999999997,7.861004093685873,191.12368612222107,15.36,886.03,58.1,64.0,2.0,1.26698,0.0733068,-0.0108071,32.6914928,-103.075318,1166.38208,15.0493378,1.66465445,-5.97127791,2.24475,26.4832,15187.0,25.6833,11864.0,0.898231,0.146864,12.0,-1204.0,80.0,,0.0,,1.0698488045417174,0.014170369383485667,7.522613113006734,1.0487357157399786,-0.24300477999999998,7.6203715071920115,187.97814563742898,0.4104774799812402,0.25128590496647873,0.0,0.0,0.05776287071952626,-0.9983303314866474,-0.6124569460169582,0.2519843288895319
2023-04-19 07:15:06.064002,7.12,-5.45,4.57,0.33,-0.17270879506233205,7.110384776656472,-0.5715277950623321,8.389874776656473,0.287705201302507,0.0,0.0,0.32684356959767935,0.3473355,8.409318806449505,176.10296705481434,15.69,886.08,56.75,63.0,2.0,1.27949,-0.398819,-0.0173355,32.6915028,-103.075324,1166.17981,48.6276657,4.85015339,-5.17761453,2.24288,26.046,15174.2,25.6896,11839.0,0.897858,0.15324,11.0,-1186.0,80.0,,0.0,,1.0686868053653986,0.014149970347817273,8.231791369079884,-0.28174256439914563,-0.09719898000000002,8.243684696844527,178.01178198519406,0.34326693359336646,0.2880572951789153,0.0,0.0,0.29758044384112986,0.954696747372335,2.1806414193901693,0.2933659409840037
2023-04-19 07:15:07.067692,6.41,-3.52,5.34,-0.49,0.3629528468881409,6.385472984120737,0.7216888468881408,7.661112984120737,0.2865640400944883,0.0,-0.0,0.37915271138144996,-0.593128,7.6950300160029315,185.38147142221413,15.91,886.08,55.41,61.0,2.0,1.27564,0.358736,0.103128,32.6915128,-103.07533,1166.02686,36.6451281,9.71720914,-4.68508861,2.24112,26.9015,15159.2,25.6948,11828.0,0.869018,0.162531,11.0,-1175.0,80.0,,0.0,,1.0678734410217314,0.014136258763675833,7.396571282588987,0.7973583956283864,-0.5149404000000001,7.482788434666972,186.42007425947045,0.34760274537516545,0.2826140985719114,0.0,0.0,0.2707191771345356,-0.9626583647024525,1.2348099620220334,0.2878756965629648
2023-04-19 07:15:09.064710,5.06,-0.45,5.03,-0.24,-1.8997557338616633,4.679137543571437,-0.7843957338616634,6.617067543571436,0.14470168609314604,0.0,-0.0,0.304564833552873,-0.2675919,6.663396997289514,173.23963214370858,15.95,886.08,55.76,30.0,2.0,1.93793,1.11536,0.0275919,32.6915333,-103.075313,1166.16467,-16.9851696,-2.59539729,-2.0507947,2.245,26.9056,15123.6,25.701,11796.0,0.867255,0.170019,14.0,-1180.0,80.0,,0.0,,1.0677256895944025,0.014133768646198083,7.120367955345868,-0.45866944948286925,-0.43261006,7.150758389326214,176.37258702204355,0.31123830209807013,0.1433038883535822,0.0,0.0,0.4988240785850868,-0.8667032586899274,3.949341291040499,0.19882069083700035
2023-04-19 07:15:10.063710,5.91,-0.28,5.9,-0.23,-2.1533761248465044,5.500124659036471,-1.7037291248465043,7.326004659036471,0.1362344049209987,0.0,-0.0,0.3178209757124936,-0.15956560000000003,7.521504982054743,166.90805417401748,15.82,886.07,55.66,34.0,2.0,1.82588,0.449647,-0.0704344,32.6915492,-103.075303,1166.26514,-18.6639584,-3.27846761,-2.59079341,2.24517,26.703,15143.6,25.7069,11796.0,0.867209,0.172359,14.0,-1176.0,80.0,,0.0,,1.0681939758765948,0.01414182116644019,6.902242948314641,-1.481708241554302,-0.35419044120000004,7.065114197414749,167.77146176148497,0.3096996413797807,0.13682241773562542,0.0,0.0,0.23911913532748963,-0.9709902363670985,3.089182601315149,0.1520991142907206
2023-04-19 07:15:11.064737,4.0,0.0,3.96,-0.6,-1.238485866846648,3.761349858444586,-1.0772228668466481,5.647199858444586,0.13687653934108407,0.0,-0.0,0.2866651701519778,-0.6163569999999999,5.749023860280444,169.20037318250468,16.13,886.07,55.11,39.0,2.0,1.88585,0.161263,0.016357,32.691571,-103.075296,1166.45203,-18.2249737,-1.37367451,-3.2557534,2.24562,27.4326,15137.6,25.712,11791.0,0.863145,0.183194,14.0,-1167.0,80.0,,0.0,,1.0670492713255655,0.014122530637847627,5.988745711800739,-0.58265328220041,-0.4137268902,6.111810117846536,174.30725975315303,0.2893501320765874,0.15440503939889955,0.0,0.0,0.08520116161554145,-0.9963637699451754,1.0907827120896463,0.15580634810042973
2023-04-19 07:15:12.064276,4.14,0.17,4.06,-0.75,-0.767360242249086,3.9904458721570726,-0.694761142249086,5.936635872157073,0.1572123917365819,0.0,-0.0,0.28838916457969727,-0.669777,5.977151371963188,173.32506982271514,16.05,886.09,54.86,35.0,2.0,1.94619,0.0725991,-0.080223,32.69159,-103.075293,1166.31262,-13.2827512,-2.90528049,-2.60072658,2.24469,26.9971,15107.1,25.7179,11820.0,0.854977,0.19368,17.0,-1166.0,80.0,,0.0,,1.0673685356653662,0.01412759077282075,5.830801679948038,-0.6343717220644559,-0.3980168,5.916998903573356,173.84729594860158,0.2862144815385474,0.16337538607362226,0.0,0.0,0.037277265225554655,-0.9993049612091914,0.8512871498108618,0.16361008589273268
2023-04-19 07:15:13.064404,3.75,-0.23,3.74,-0.2,-0.07768001898403668,3.746260243849944,-0.3305920189840367,5.780000243849944,0.21417963602370682,0.0,-0.0,0.2775969255806905,-0.19074385000000002,5.789446769935911,176.72648577964821,16.06,886.1,54.63,45.0,2.0,2.03374,-0.252912,-0.00925615,32.691612,-103.075296,1166.30957,2.33122754,-0.254079847,-3.49426593,2.24451,27.5313,15126.7,25.7232,11820.0,0.832324,0.198385,17.0,-1166.0,80.0,,0.0,,1.0673436747246157,0.01412701245646073,5.930242582460797,-0.4811754672926239,-0.32057323000000004,5.957733946101544,175.3699632481751,0.28362891622335357,0.20491633473476253,0.0,0.0,0.12340749602091394,0.992356080208031,0.2543389872833094,0.20634036443507084
2023-04-19 07:15:14.063802,4.04,0.91,3.88,-0.64,1.0934968815729385,3.8323314796596417,0.9259878815729384,6.077651479659641,0.21948558941090385,0.0,-0.0,0.2826860419772679,-0.6510454,6.14778830678391,188.66293364709696,16.09,886.1,54.59,28.0,2.0,2.24532,-0.167509,0.0110454,32.6916374,-103.075301,1166.37439,2.72592372,1.72701941,-3.82315718,2.24631,27.2838,15145.7,25.729,11857.0,0.8387,0.212366,14.0,-1199.0,80.0,,0.0,,1.0672329697383007,0.014125147263010911,6.472589012380598,0.06981060624599507,-0.421930532,6.489721850155798,180.6575512592628,0.2977429327042707,0.2159643177992001,0.0,0.0,0.0743968719100471,0.9972287127083737,0.5511575166805425,0.21650198373830531
2023-04-19 07:15:15.063662,5.96,0.75,5.91,0.04,1.0129860174068726,5.8706438597941,0.8102840174068726,8.1727338597941,0.21759435447822173,0.0,0.0,0.3661138697289572,0.0559892,8.212803354025347,185.66207450899344,16.13,886.05,54.94,39.0,2.0,2.30209,-0.202702,-0.0159892,32.6916577,-103.075307,1166.32812,2.55766778,2.83256077,-3.68161308,2.24408,28.0417,15169.1,25.7342,11870.0,0.807153,0.219268,16.0,-1216.0,80.0,,0.0,,1.0670251863374423,0.014122443654124172,8.204323298536844,0.24301397625030954,-0.24508167999999997,8.213830904748985,181.68080703189156,0.36696124925121154,0.21552224536631495,0.0,0.0,0.08771193239184155,0.9961458813427324,0.9616944220325405,0.21709094202747667
2023-04-19 07:15:16.064172,6.83,-0.1,6.83,-0.09,0.22527557804857998,6.827016252649094,-0.01823742195142003,9.206746252649094,0.21523693548066208,0.0,-0.0,0.4079333664561889,-0.1253496,9.206764315666366,179.88650431850462,15.97,886.06,54.85,76.0,2.0,2.37973,-0.243513,0.0353496,32.6916788,-103.075313,1166.15698,2.72876514,1.30357881,-3.37171902,2.24061,27.9542,15144.4,25.7402,11871.0,0.739949,0.228267,14.0,-1197.0,80.0,,0.0,,1.067627730895052,0.014132436805640289,8.863266255840035,0.008963373947846248,-0.219347532,8.863281807452,180.05991276958304,0.39279992036008193,0.21527809571969367,0.0,0.0,0.10179642694430575,0.9948052510222152,0.9111656473707437,0.2178606478237942
2023-04-19 07:15:17.064248,6.81,-0.04,6.81,0.14,0.2833050485253015,6.804222089958563,0.026835048525301497,9.115402089958563,0.21516694389930222,0.0,0.0,0.4069909713295545,0.06571760000000001,9.11544159004106,180.16867391768346,15.91,886.04,55.16,42.0,2.0,2.31118,-0.25647,0.0742824,32.6917002,-103.07532,1166.14441,2.72076269,3.17794385,-4.13928222,2.24322,27.7824,15150.0,25.7459,11847.0,0.707089,0.247763,12.0,-1183.0,80.0,,0.0,,1.06782523438391,0.014136084434927709,9.139001971968996,-0.07315321196902784,-0.1218184,9.139613811735424,179.54783764838194,0.4065317587323487,0.21515104389992173,0.0,0.0,0.1102922865214157,0.99389919586137,0.9352545054614946,0.21848859812002017
2023-04-19 07:15:18.063688,6.33,-0.1,6.32,-0.32,0.2145910841252734,6.3171473519788925,-0.20786791587472658,8.501367351978892,0.21563437167041183,0.0,-0.0,0.3851041263801939,-0.297429,8.50390827347889,178.59933336010033,15.65,886.06,56.05,29.0,2.0,2.18422,-0.422459,-0.022571,32.691722,-103.075325,1166.17993,2.85207078,2.44974531,-4.9604924,2.24495,27.3803,15159.4,25.7517,11817.0,0.698334,-1.0,13.0,-1171.0,80.0,,0.0,,1.0688106979098941,0.014152378885538181,8.640318634899785,-0.20184226659979085,-0.22954680200000005,8.64377261927719,178.6552335009814,0.39256356070029325,0.21562383562672469,0.0,0.0,0.18989484557365444,0.9818044345105383,1.4425823404621305,0.22444186610891204
2023-04-19 07:15:19.063924,6.85,0.03,6.85,-0.19,0.3624689323152523,6.840469009732171,0.11882093231525229,8.81092900973217,0.2153618259961131,0.0,-0.0,0.4090261769138662,-0.297396,8.811730160898946,180.7726228726537,15.78,886.05,56.15,54.0,2.0,1.97046,-0.243648,0.107396,32.6917397,-103.07533,1166.03113,2.78227477,2.62195574,-3.45228583,2.24565,27.7576,15165.6,25.7575,11794.0,0.663051,-1.0,15.0,-1171.0,80.0,,0.0,,1.0683177444491583,0.01414422689334344,8.659442464757662,-0.018240758629686982,-0.30597754,8.661404735151077,179.88304333414214,0.4012726850842891,0.21544151351528362,0.0,0.0,0.12271574873274184,0.9924418597645721,1.0445470732528728,0.2194103370794967
2023-04-19 07:15:20.063840,6.92,-0.16,6.92,-0.08,0.19662440436663642,6.919056210467398,0.19001326436663643,8.651376210467397,0.21603776957918708,0.0,-0.0,0.4128154401821261,-0.23640100000000003,8.653462623463309,181.25820537198632,15.78,886.06,56.12,40.0,2.0,1.73232,-0.00661114,0.156401,32.6917562,-103.075331,1165.93091,2.95230423,2.3065845,-9.49335075,2.24554,28.3376,15172.6,25.7622,11809.0,0.658736,-1.0,13.0,-1166.0,80.0,,0.0,,1.0683298015310887,0.014144270528841416,8.744367630011686,0.20192275759572062,-0.331179,8.746766367927322,181.3162015085195,0.42014064128002965,0.21569200543116546,0.0,0.0,0.003816322536513482,0.9999927178146335,0.23529261441074267,0.21569639426078802
2023-04-19 07:15:21.064079,8.47,-0.15,8.45,-0.46,0.29700492122145244,8.446110825508402,0.23669032122145245,8.833686825508401,0.21627391272012347,0.0,-0.0,0.48542027207002714,-0.636995,8.836857203741644,181.53481924280499,15.5,886.02,57.21,52.0,2.0,0.387576,-0.0603146,0.176995,32.6917635,-103.075334,1166.16626,3.03093686,2.01755573,-12.6557422,2.24162,28.4328,15189.6,25.7678,11811.0,0.559059,-1.0,15.0,-1172.0,80.0,,0.0,,1.0693178414884763,0.01416157141434883,8.777930960313126,0.3694926812252356,-0.46169398,8.78995431699877,182.42344882205998,0.4851211082049822,0.21850438795723176,0.0,0.0,0.1537692364770042,0.9881067866952838,1.714873967568098,0.22842925769481143
2023-04-19 07:15:22.064442,6.72,-0.32,6.69,-0.45,2.7994960891716145,6.0845149064418305,2.5871100891716146,5.926208906441831,0.274352255898568,0.0,-0.0,0.46173706820582994,-0.4731519,6.466304247117053,203.58386703092208,15.75,886.02,56.13,72.0,2.0,-0.158306,-0.212386,0.0231519,32.6917604,-103.075338,1166.04211,27.4457608,2.26356612,-3.01945952,2.24486,28.6008,15166.8,25.7727,11862.0,0.490565,-1.0,14.0,-1196.0,80.0,,0.0,,1.0683925058693275,0.014145966261555714,6.8645423417991065,2.0447767694941734,-0.5992291200000001,7.189466071156632,196.88057380097993,0.4764512058563799,0.2701872923634626,0.0,0.0,0.8017786207633244,-0.59762115364741,4.281841439042596,0.41473226983374245
2023-04-19 07:15:23.063909,7.16,-6.27,3.41,-0.53,1.9022769573612381,6.87912366348305,1.8280804573612381,6.9881096634830495,0.33923822103488577,0.0,-0.0,0.2583616728522719,-0.6185205,7.223264831601514,194.65998192190204,16.05,886.05,55.09,129.0,2.0,0.108986,-0.0741965,0.0885205,32.6917578,-103.075341,1166.31726,76.9176783,4.266848,-4.07418174,2.2466,28.5813,15154.0,25.7782,11867.0,0.495928,-1.0,11.0,-1212.0,80.0,,0.0,,1.0673203523640913,0.014127416672676984,6.958333638959334,1.538983139936957,-0.3590767,7.138988217362782,192.64950797056275,0.2784035013219749,0.3262430625791932,0.0,0.0,0.5627560784113228,0.8266230073081132,5.188003422269515,0.3118875201376771
2023-04-19 07:15:24.064724,7.86,-7.34,-2.82,-0.14,-2.638178797499384,7.407294555532721,-2.607844697499384,7.898231555532721,0.42644647987552575,0.0,-0.0,0.2517394409311584,-0.1623322,8.317626805230473,161.72776694406338,16.15,886.02,54.74,97.0,2.0,0.490937,0.0303341,0.0223322,32.6917557,-103.075341,1166.27576,91.4127418,4.22712851,-4.25606947,2.24734,29.1217,15128.7,25.7824,11860.0,0.47705,-1.0,12.0,-1207.0,80.0,,0.0,,1.0669152953530894,0.014121070506526369,7.025862330079258,-1.7358885881280752,-0.446752558,7.3149231340692396,167.71336953662527,0.23878197954303224,0.3925489291452349,0.0,0.0,0.061670562292867784,-0.9980965593300487,2.165873307679194,0.3920783719136078
2023-04-19 07:15:25.063726,8.1,-7.81,-2.11,-0.27,-1.8807658857572276,7.868349234939424,-1.7586418857572277,8.208279234939424,0.4489598421883611,0.0,-0.0,0.235196924210288,-0.20949540000000003,8.394561887381466,167.90707885033922,15.74,885.95,56.15,76.0,2.0,0.33993,0.122124,-0.0605046,32.6917544,-103.075341,1166.33899,91.6753309,6.29505005,-6.32352708,2.24814,29.2392,15114.8,25.7878,11840.0,0.494253,-1.0,12.0,-1189.0,80.0,,0.0,,1.0683450772850343,0.014146284251052677,7.949091077122572,-1.7646654454657953,-0.37602006,8.150208873773291,167.46439005236,0.2349800621975738,0.43822474984019844,0.0,0.0,0.3381047103748367,-0.9411084979014629,4.348366783054656,0.4199997321769772
2023-04-19 07:15:26.063834,7.89,-7.65,-1.9,-0.42,-1.7490126783681845,7.685925751066513,-1.2829316783681846,7.797372751066513,0.43930799587598934,0.0,-0.0,0.2296616692123127,-0.4439323,7.902210798911604,170.65661798514907,15.66,885.98,55.88,83.0,2.0,0.111447,0.466081,0.0239323,32.6917516,-103.075338,1166.22131,91.1281558,7.6777092,-7.73575232,2.24823,29.9716,15057.3,25.7883,11843.0,0.518916,-1.0,12.0,-1183.0,80.0,,0.0,,1.0686771937776394,0.014151405361189822,7.680272005948287,-1.5015347019035223,-0.32063262000000003,7.829061539089659,168.93222110734084,0.23486738129725043,0.43565190678772786,0.0,0.0,0.9725822674362024,-0.23255909586308451,7.818891914753705,0.24988792330707646
2023-04-19 07:15:27.063969,7.26,-6.96,-1.98,-0.61,-1.8104192915977444,7.006024692263846,-1.2523552915977443,6.731434692263846,0.40931826100766294,0.0,-0.0,0.231877341978682,0.07288300000000003,6.846941418809287,169.46085453597766,15.67,886.03,56.35,90.0,2.0,-0.27459,0.558064,-0.682883,32.6917459,-103.075333,1165.84338,91.3913453,6.94000439,-6.93206905,2.24972,29.6332,14992.4,25.7919,11803.0,0.54809,-1.0,14.0,-1171.0,80.0,,0.0,,1.0687005006520702,0.014150999790440193,6.836278884633631,-1.3084989299703027,0.07461180000000003,6.961033116320744,169.15693429336784,0.2334062253216907,0.4115141077759395,0.0,0.0,0.8972657141331168,0.4414909265672261,5.556268250429129,0.2772496473616717
2023-04-19 07:15:28.064649,7.68,-7.45,-1.82,-0.43,-1.624389645042895,7.495082273135995,-1.317129645042895,7.251717273135995,0.4317683658565323,0.0,-0.0,0.22899951371946453,0.48186199999999996,7.370361857558269,169.70558906538201,15.73,886.07,55.52,75.0,2.0,-0.243365,0.30726,-0.911862,32.6917394,-103.075328,1165.03943,91.4997586,5.77209362,-5.73560098,2.25273,30.1885,14941.6,25.7972,11796.0,0.623111,-1.0,14.0,-1164.0,80.0,,0.0,,1.0685267696242715,0.014147431667584552,7.375839413183025,-1.1616621593044727,0.5843360000000001,7.472438274591366,171.12187115577038,0.2275887133038656,0.4368193656417524,0.0,0.0,0.7838999154307752,0.6208872060105792,5.060658719806382,0.3246334151287937
2023-04-19 07:15:29.064530,7.88,-7.55,-2.22,-0.51,-2.0312231677078167,7.602962083488712,-1.8064011677078167,7.585057783488712,0.43601834475692935,0.0,-0.0,0.23706468919694454,-0.09463300000000002,7.797190953000886,166.60439247252214,15.66,886.12,55.75,99.0,2.0,-0.0179043,0.224822,-0.415367,32.6917356,-103.075327,1164.62817,91.4275171,7.54517103,-7.53547142,2.24939,31.0605,14919.8,25.8027,11803.0,0.677588,-1.0,16.0,-1170.0,80.0,,0.0,,1.0688460630603873,0.014152016947976994,7.299050272521183,-1.0114554590865301,-0.20881542000000003,7.380926061830003,172.22228676194928,0.22346155175478208,0.4260737217423129,0.0,0.0,0.996843925180676,0.07938632646988274,7.195718190466311,0.2253096908785739
2023-04-19 07:15:30.064408,7.38,-7.35,-0.51,-0.39,-0.35487713249612174,7.359121022298201,0.4364518675038782,7.0652380222982005,0.4261041862224322,0.0,-0.0,0.21168285526977015,-0.39426441,7.078705993638655,183.53492876305572,15.88,886.17,54.85,66.0,2.0,-0.293883,0.791329,0.00426441,32.6917318,-103.07532,1164.65967,91.2084415,6.71016152,-6.74851247,2.24668,30.9573,14894.3,25.8083,11810.0,0.642164,-1.0,14.0,-1183.0,80.0,,0.0,,1.0680927576233654,0.014138519308059016,6.771655222669551,0.2245517283883986,-0.428486016,6.807717341148967,182.2657753973187,0.21588495633312096,0.4108853620631597,0.0,0.0,0.9374404284020225,0.348145721210864,6.426200096359062,0.2478307893849451
2023-04-19 07:15:31.064519,8.02,-7.53,-2.74,-0.35,-2.556244913385739,7.594347367798601,-1.755915913385739,7.435393367798602,0.434965591442652,0.0,-0.0,0.24960035576201392,-0.42456069999999996,7.639915917651496,166.71267436253189,15.61,886.15,55.89,89.0,2.0,-0.158954,0.800329,0.0745607,32.6917277,-103.075312,1164.31897,91.3921755,6.36526919,-6.38713781,2.24698,31.3592,14883.0,25.8139,11857.0,0.691521,-1.0,15.0,-1199.0,80.0,,0.0,,1.069067330760898,0.014155269029778256,7.532875279440917,-2.0353791256034874,-0.6285269,7.808883888896334,164.90708242605177,0.25840216290639006,0.4409271675283808,0.0,0.0,0.9808418320866437,0.19480580183587015,6.992055527363838,0.2676111351115268
2023-04-19 07:15:32.067569,8.74,-7.83,-3.85,-0.62,-3.672991981235232,7.914577051604318,-2.8108669812352316,7.679834051604318,0.44817871526959113,0.0,-0.0,0.2822916576193367,-0.6616302,8.17806971395938,159.89706026507918,15.62,886.13,55.91,70.0,2.0,-0.234743,0.862125,0.0416302,32.6917255,-103.075304,1164.65625,91.2882385,8.02136854,-8.02357164,2.24621,31.0335,14869.6,25.8193,11857.0,0.680584,-1.0,15.0,-1199.0,80.0,,0.0,,1.0690061818234324,0.014154557305330948,7.776031682579584,-2.838764066971091,-0.855613578,8.278231943062226,159.9487679321334,0.28309560646641796,0.45131575182196426,0.0,0.0,0.9648722651071152,0.26271945498395194,6.757078754612584,0.29777547288491296
2023-04-19 07:15:33.063864,8.33,-7.37,-3.73,-1.07,-3.562741398359112,7.452293185887023,-2.637524398359112,7.305497185887023,0.42733403451276847,0.0,-0.0,0.27841995946866877,-1.0209503,7.767034445973753,160.14875298561117,15.74,886.12,55.35,67.0,2.0,-0.146796,0.925217,-0.0490497,32.6917244,-103.075295,1164.66016,91.293026,8.16127769,-8.17413539,2.24901,31.4547,14797.6,25.8243,11863.0,0.687574,-1.0,16.0,-1203.0,80.0,,0.0,,1.068550076058259,0.014147026322433918,6.72747400328447,-2.064241689201719,-0.9205148526,7.052809623193172,163.4514088964833,0.26175766399451367,0.4052186416131115,0.0,0.0,0.9876460776766812,0.156701069715133,6.3208944311672655,0.2662078946552276
2023-04-19 07:15:34.063910,6.58,-6.2,-2.18,-0.37,-2.0157634722574147,6.255325541002062,-0.8676234722574148,5.991345541002062,0.3762411544684157,0.0,-0.0,0.23635426928549733,-0.37673617,6.053841084906119,171.7601184351036,15.9,886.18,54.92,81.0,2.0,-0.26398,1.14814,0.00673617,32.6917223,-103.075283,1164.71814,91.5109223,6.55684073,-6.55968469,2.25292,31.6419,14717.0,25.8298,11867.0,0.703497,0.412428,15.0,-1205.0,80.0,,0.0,,1.0680309060320479,0.014137317320246756,6.211458540118004,-1.1351994843379003,-0.571128358,6.340506636098093,169.92344430015905,0.2431646336990021,0.385666922742004,0.0,0.0,0.9745722796358044,0.22407336246299225,5.799147343784241,0.2522464130137767
2023-04-19 07:15:35.063903,8.13,-7.29,-3.55,-0.55,-3.3757977548807077,7.372285230384292,-2.1693277548807077,7.319005930384292,0.42399464958503263,0.0,-0.0,0.27278147889924526,-0.4934799,7.633729803778504,163.49036076916752,16.04,886.15,54.37,45.0,2.0,-0.0532793,1.20647,-0.0565201,32.6917214,-103.075272,1164.52563,91.3613954,6.37258507,-6.36564986,2.24849,32.5978,14727.4,25.8358,11867.0,0.696089,-1.0,11.0,-1207.0,80.0,,0.0,,1.0674777220184546,0.014128473852143067,7.372137148556431,-1.4354575174015423,-0.33129396000000005,7.521208412299866,168.96901387027543,0.2519995220519676,0.4271954821808257,0.0,0.0,0.9990263131389004,0.04411831429344956,7.301629029569041,0.2524586473583728
2023-04-19 07:15:36.064444,7.19,-6.77,-2.28,-0.78,-2.1208324263329046,6.8215372035498625,-0.9370124263329045,7.038272203549862,0.40071745631614275,0.0,-0.0,0.2382444791899146,-0.8282519,7.10037096906668,172.4167456075404,15.46,886.17,56.36,93.0,2.0,0.216735,1.18382,0.0482519,32.6917237,-103.075259,1164.43274,91.3418958,8.47264059,-8.48108164,2.24861,31.8871,14744.5,25.8412,11868.0,0.703883,0.437124,14.0,-1203.0,80.0,,0.0,,1.0696471007098898,0.014164728017277415,7.437347120077403,-1.2615907064356529,-0.638021554,7.550398450388353,170.33207668166878,0.2471779072300711,0.4207053236661574,0.0,0.0,0.9836505456559321,-0.1800877675767761,7.542947606814318,0.2546676514103489
2023-04-19 07:15:37.064485,8.61,-8.01,-3.15,-0.18,-2.964235558846277,8.080588317175383,-1.7485855588462773,8.162736817175384,0.456572085104066,0.0,-0.0,0.2607826903585725,-0.29552999999999996,8.347923322783712,167.9090839044735,15.84,886.14,55.14,70.0,2.0,0.0821485,1.21565,0.11553,32.6917249,-103.075248,1164.63513,91.3228908,7.98105215,-7.98311771,2.25347,32.9278,14692.1,25.8469,11826.0,0.734004,0.437632,16.0,-1174.0,80.0,,0.0,,1.068204431910567,0.014140880289950976,7.543017389163476,-1.49389852499801,-0.47569926,7.69705905483044,168.96980544188534,0.25391485812428,0.43003759592163887,0.0,0.0,0.9977245469696505,-0.06742201698411016,7.626575259112279,0.2549908463087452
2023-04-19 07:15:38.063993,8.13,-7.72,-2.54,-0.36,-2.3586436931241836,7.777326014054285,-1.1025836931241837,7.7060441140542855,0.4433914463843412,0.0,-0.0,0.24442981703062708,-0.3750193,7.78452353635687,171.85736349939432,15.71,886.16,55.46,131.0,2.0,-0.0712819,1.25606,0.0150193,32.6917244,-103.075234,1164.53381,91.340938,7.34944066,-7.34320442,2.25232,33.3836,14639.4,25.8528,11808.0,0.749464,0.470784,12.0,-1177.0,80.0,,0.0,,1.0687092919864263,0.01414907205774944,7.623480116468775,-1.1548319365846846,-0.387279448,7.723426623082981,171.34595152834035,0.2461866445022256,0.4405769520515125,0.0,0.0,0.9983935755921696,0.056659228871233196,7.545801684934308,0.24705553087848342
2023-04-19 07:15:39.063853,7.85,-7.24,-2.98,-0.51,-2.8049825755428173,7.309587727833984,-1.6093625755428174,7.305735707833984,0.42180894110328454,0.0,-0.0,0.25604110437709915,-0.600985,7.480897147553783,167.57686794905004,15.63,886.17,55.76,81.0,2.0,-0.00385202,1.19562,0.090985,32.6917258,-103.07522,1164.39709,91.3783588,7.69616418,-7.68533793,2.24639,33.9093,14629.3,25.8583,11794.0,0.675668,-1.0,16.0,-1182.0,80.0,,0.0,,1.069017417189145,0.014154107856935645,7.095873892876094,-1.2893226420849562,-0.66478912,7.217514303326093,169.711562921444,0.24772941921278355,0.41196928039952896,0.0,0.0,0.9999948101196233,0.003221759429016271,7.091683178760241,0.2477316890820465
2023-04-19 07:15:40.064113,7.31,-6.67,-2.91,-0.68,-2.763906150233626,6.731851364424258,-1.690566150233626,6.755025264424257,0.3960135398907921,0.0,-0.0,0.253950804842886,-0.786572,6.963359837845934,165.94930951777332,15.68,886.16,55.5,82.0,2.0,0.0231739,1.07334,0.106572,32.6917266,-103.075207,1164.64429,91.2491154,8.82503735,-8.8056652,2.24603,33.8956,14682.8,25.8638,11796.0,0.608982,-1.0,14.0,-1197.0,80.0,,0.0,,1.0688202959637125,0.014150943675509493,6.670182791774792,-1.1159760843944262,-0.84178552,6.769968109707281,170.57872352211717,0.24053973470612688,0.3928707875382279,0.0,0.0,0.9997670075592415,-0.021585425546870714,6.692717508287616,0.24063316630627546
2023-04-19 07:15:41.064275,7.57,-6.75,-3.34,-0.79,-3.206366631327486,6.814492866348136,-2.272813631327486,6.589720866348136,0.3991463542760646,0.0,-0.0,0.2662069063894524,-0.7712125000000001,6.970660148015543,160.97053905956562,15.9,886.15,54.86,83.0,2.0,-0.224772,0.933553,-0.0187875,32.6917245,-103.075195,1164.65076,91.1288856,6.5909845,-6.54458914,2.24494,34.3305,14722.6,25.8694,11796.0,0.519217,-1.0,14.0,-1197.0,80.0,,0.0,,1.0679947498028608,0.014137186550089465,6.672173516463286,-2.025856655598608,-0.70404544,6.994705282819948,163.44923864803008,0.2600672299530189,0.4019143551696917,0.0,0.0,0.9722170584677264,0.23408116375385984,6.012586026221179,0.2697779271866328
2023-04-19 07:15:42.067397,7.23,-6.91,-2.05,-0.58,-1.9333326201111476,6.943545562608066,-1.2196646201111476,6.807132562608066,0.4056394231672449,0.0,-0.0,0.23237806036203493,-0.6612435999999999,6.9155358079088805,169.84184579637082,15.64,886.17,55.71,107.0,2.0,-0.136413,0.713668,0.0812436,32.6917232,-103.075188,1164.49646,90.9650079,6.07177434,-6.07881264,2.2455,33.5502,14722.5,25.8748,11809.0,0.459353,-1.0,17.0,-1187.0,80.0,,0.0,,1.0689804000688434,0.01415348364502053,7.081931379009802,-2.061878215799132,-0.5930618400000001,7.4089525464759785,164.2438467552295,0.2559997652212322,0.41696185821668974,0.0,0.0,0.9822178872736343,0.18774456561966874,6.568893246921998,0.26335146050938457
2023-04-19 07:15:43.064180,6.59,-6.44,-1.02,-0.98,-1.243804192577477,6.400543034034432,-0.342821192577477,6.323931034034432,0.37649452087747753,0.0,-0.0,0.20614556069329493,-1.0140006,6.333216409795582,176.89702495126681,15.67,886.18,55.59,79.0,2.0,-0.076612,0.900983,0.0340006,32.6917221,-103.07518,1164.58191,88.0029291,6.86759215,-6.82884376,2.24559,34.1727,14683.4,25.8803,11825.0,0.392424,-1.0,15.0,-1175.0,80.0,,0.0,,1.0688814257619397,0.01415165502968802,6.362498356276018,-0.2996392145275997,-0.92901958,6.3826456346815235,177.269207962777,0.20685401305194856,0.3775251383021702,0.0,0.0,0.9964043029142494,0.08472582330062478,6.3142335603342605,0.20857741670939464
2023-04-19 07:15:44.064306,7.08,-6.76,-2.03,-0.64,-2.283420068873757,6.678659505399611,-1.226180068873757,6.6289406053996105,0.3887798012952113,0.0,-0.0,0.2248655870861448,-0.63780271,6.741392371848638,169.5202355491395,15.73,886.17,55.4,95.0,2.0,-0.0497189,1.05724,-0.00219729,32.6917213,-103.075167,1164.73352,87.8393411,7.61222119,-7.63304994,2.24685,34.8987,14583.4,25.8864,11843.0,0.367921,-1.0,18.0,-1180.0,80.0,,0.0,,1.068647361312245,0.014147868251791812,6.649572704491955,-1.0443343846856525,-0.655051562,6.738823567179034,171.12211054303594,0.22094669730441505,0.3887650095583378,0.0,0.0,0.9988960580469726,0.046975155329378286,6.593174192277341,0.2214570630556986
2023-04-19 07:15:45.064652,6.59,-6.46,-1.28,0.28,-1.4719498531624386,6.418984626074055,-0.45643985316243874,6.200872626074055,0.3781487640790824,0.0,0.0,0.21084818391719465,0.2947867,6.217648965995869,175.79010913045317,16.32,886.18,53.4,75.0,2.0,-0.218112,1.01551,-0.0147867,32.6917187,-103.075155,1164.72083,88.2922408,4.95904051,-5.06137011,2.25066,35.0281,14541.8,25.8916,11855.0,0.381181,-1.0,17.0,-1199.0,80.0,,0.0,,1.066481270558481,0.014111211377353671,6.593838553882864,-0.4382905308079314,-0.13577422,6.663400486989725,176.39883920766914,0.21259012644630984,0.3910314016445876,0.0,0.0,0.977703143905584,0.20999181507177103,6.3547792604439985,0.22348209432430835
2023-04-19 07:15:46.064040,6.45,-6.37,-0.9,-0.49,-1.162250914293679,6.32740648387817,-0.18344091429367904,6.18274648387817,0.37265621438145063,0.0,-0.0,0.20344946626615004,-0.4990215,6.185467213795961,178.30054365906147,15.71,886.17,55.55,99.0,2.0,-0.14466,0.97881,0.0090215,32.6917169,-103.075145,1164.6781,87.6335743,6.78936203,-6.75053542,2.2455,35.4082,14572.4,25.8973,11863.0,0.259277,-1.0,15.0,-1204.0,80.0,,0.0,,1.0687213519901728,0.014149115726023525,6.105908020206391,-0.4980960418226366,-0.7411425,6.175575270482237,176.037597131347,0.2112221120130192,0.371320676149581,0.0,0.0,0.9892545190498448,0.14620361329139625,5.967473660811252,0.2158896721804781
2023-04-19 07:15:47.064531,6.63,-6.23,-2.16,-0.75,-2.3995675367553995,6.141707876197763,-1.2694775367553994,6.007173876197762,0.3675863073267026,0.0,-0.0,0.2279729322709751,-0.7236204,6.139846186607561,168.06742475460666,15.64,886.16,55.77,83.0,2.0,-0.134534,1.13009,-0.0263796,32.6917162,-103.075132,1164.92542,87.7813098,7.00594557,-7.02076861,2.24533,35.4236,14590.1,25.9026,11858.0,0.143766,-1.0,15.0,-1198.0,80.0,,0.0,,1.0689683371418648,0.014153439947881472,6.035907779800695,-0.6403943288700041,-0.58206096,6.112494885482387,174.1118266837931,0.2166135064884956,0.36891615888545903,0.0,0.0,0.9929883282221639,0.1182124359555804,5.917883401979583,0.21947117514856126
2023-04-19 07:15:49.064008,7.35,-6.69,-3.01,-0.42,-3.270536097787833,6.566566350313286,-1.9721260977878328,6.562690380313286,0.3856750629068573,0.0,-0.0,0.2525626769278684,-0.32322399999999996,6.852604349693071,163.2741755283215,15.76,886.14,55.35,84.0,2.0,-0.00387597,1.29841,-0.096776,32.6917172,-103.075104,1165.00012,87.7481805,7.02087023,-7.0052857,2.24143,36.4883,14620.6,25.908,11848.0,-0.0514845,-1.0,13.0,-1187.0,80.0,,0.0,,1.068500220753296,0.014145866517135947,6.365450748268452,-1.4557020101272944,-0.32550920000000005,6.535519475503915,167.1630465176234,0.2369133266599448,0.3761606384478223,0.0,0.0,0.9999955444203432,0.0029851531721725283,6.3610768930223225,0.23691493216610313
2023-04-19 07:15:50.063318,7.93,-7.23,-3.24,-0.2,-3.497511363681846,7.109002339352291,-2.050251363681846,7.081051739352292,0.40825772453824155,0.0,-0.0,0.26030134506197516,-0.069408,7.371894219918201,163.85212824155516,16.13,886.13,54.05,99.0,2.0,-0.0279506,1.44726,-0.130592,32.6917167,-103.075089,1164.94482,87.9422936,6.78439466,-6.77987989,2.23917,35.7687,14666.1,25.9138,11835.0,-0.204951,-1.0,13.0,-1189.0,80.0,,0.0,,1.0671215262899356,0.014122791597583588,6.962325956274076,-2.0274034928847042,-0.34954128,7.284187417294388,164.27175229616438,0.2598915543024536,0.40275380972360847,0.0,0.0,0.9998135606033646,0.019309169677183297,6.921880426375384,0.25995945073813004
2023-04-19 07:15:51.064669,8.53,-7.49,-4.01,-0.77,-4.30032275372502,7.327170273290697,-3.0063627537250195,7.314902073290697,0.4182131179029012,0.0,-0.0,0.28760376643181734,-0.662868,7.908603501808497,157.65775309887056,15.64,886.12,55.8,74.0,2.0,-0.0122682,1.29396,-0.107132,32.6917159,-103.075075,1164.75745,87.755018,6.53190759,-6.51270481,2.24088,36.7895,14710.0,25.9188,11825.0,-0.326178,-1.0,14.0,-1173.0,80.0,,0.0,,1.06892008543395,0.01415326516290722,7.216097645180066,-2.829722109944817,-0.5703298419999999,7.75276297129714,158.68687920144617,0.28208949186135146,0.41537988149761385,0.0,0.0,0.9999550571387312,0.009480701592008232,7.1889455821920025,0.2821043025969486
2023-04-19 07:15:52.069811,6.34,-5.93,-2.05,-0.88,-2.292788077949577,5.840421459930121,-0.9276280779495769,5.843535929930121,0.3556179901914549,0.0,-0.0,0.22489083496491305,-0.8453666,5.916705672533045,170.9798867003313,15.52,886.17,56.28,72.0,2.0,0.00311447,1.36516,-0.0346334,32.6917163,-103.075062,1164.7489,87.636659,6.85776952,-6.79085175,2.23978,36.6099,14728.5,25.9243,11825.0,-0.511285,-1.0,14.0,-1173.0,80.0,,0.0,,1.0694247747804804,0.014160977878620551,5.959749425519751,-1.250510357687598,-0.8229782,6.114662234753995,168.34270687463086,0.23544233767661948,0.3621633168732963,0.0,0.0,0.9999973976272456,-0.002281389650288127,5.962586817417829,0.23544317471779733
2023-04-19 07:15:53.063949,8.15,-7.31,-3.55,-0.66,-3.822136494684587,7.171462376391596,-2.225786494684587,7.239769676391596,0.4111723296867509,0.0,-0.0,0.27086614000193004,-0.6008636,7.574192398343177,162.91053784538946,15.56,886.15,56.06,88.0,2.0,0.0683073,1.59635,-0.0591364,32.6917175,-103.075046,1164.6781,87.8468421,6.17400995,-6.15420057,2.23675,37.8541,14709.0,25.9299,11803.0,-0.642316,-1.0,15.0,-1177.0,80.0,,0.0,,1.0692524762928786,0.014158391445824694,7.170055911024164,-2.202551581792252,-0.6084535200000001,7.503614621592878,162.9678996166263,0.2706466653312116,0.4068687933210235,0.0,0.0,0.9990857770301059,-0.042750557144317025,7.257661188475597,0.2709581007123252
2023-04-19 07:15:54.064485,6.76,-6.13,-2.76,-0.64,-2.985725600226645,6.0232833770420635,-1.3221756002266447,6.149792377042064,0.3639215162261124,0.0,-0.0,0.24492596580674203,-0.6608758,6.290317527641937,167.8663848518164,16.02,886.18,54.54,76.0,2.0,0.126509,1.66355,0.0208758,32.6917195,-103.075027,1164.6571,87.8719105,7.55553175,-7.5630879,2.23843,38.2756,14721.8,25.9346,11812.0,-0.72056,-1.0,13.0,-1189.0,80.0,,0.0,,1.0675876937046147,0.014129848477943725,6.685701635508681,-1.7023449769655152,-0.491216092,6.909451220382937,165.96333943507824,0.2561693891875586,0.38595047639728586,0.0,0.0,0.9971208626336652,-0.07582865751610984,6.79553911634231,0.2571029581001332
2023-04-19 07:15:55.064101,5.57,-5.21,-1.85,-0.68,-2.0465225576062642,5.135985340828838,-0.4010825576062642,5.168358740828838,0.32900716111040323,0.0,-0.0,0.22061217439434944,-0.67895647,5.183898078851264,175.56254249512602,15.95,886.17,54.79,93.0,2.0,0.0323734,1.64544,-0.00104353,32.6917198,-103.075013,1164.64685,87.8235888,7.44086718,-7.38143225,2.23694,38.0886,14714.8,25.9399,11843.0,-0.773619,-1.0,10.0,-1198.0,80.0,,0.0,,1.067834139522246,0.014134160758818235,5.882053764958799,-0.5735695370205371,-0.578547034,5.9247527866008864,174.65150609453886,0.2247922626332326,0.3569726517595411,0.0,0.0,0.999806510915962,-0.019670809084793926,5.89219822862314,0.22485843607539535
2023-04-19 07:15:56.064375,7.41,-7.3,-1.13,-0.58,-1.43004813248904,7.2471968607706945,0.40033186751095995,7.3281837607706946,0.4099310115094241,0.0,-0.0,0.20654142484678345,-0.6207455,7.339110493497706,183.12690707183106,15.92,886.15,54.8,82.0,2.0,0.0809869,1.83038,0.0407455,32.6917187,-103.074993,1164.74487,87.6367881,6.43604345,-6.40823531,2.23537,38.2683,14714.5,25.9453,11858.0,-0.812948,-1.0,9.0,-1199.0,80.0,,0.0,,1.0679208580292556,0.014135941211094172,6.8814545196715615,-0.07503073791147408,-0.61043148,6.9000051316995625,179.42796612017483,0.21728379389733704,0.39486674919068737,0.0,0.0,0.999022582887843,-0.044202702181008115,6.878045029629826,0.21777201010165362
2023-04-19 07:15:57.064102,8.61,-7.83,-3.57,-0.29,-3.836250807025638,7.7030500287610195,-1.967040807025638,7.79287432876102,0.4336043458503476,0.0,-0.0,0.27167036531420125,-0.32291169999999997,8.03729679932044,165.83358395963006,15.88,886.13,55.09,94.0,2.0,0.0898243,1.86921,0.0329117,32.6917188,-103.074976,1164.56543,88.0359873,5.92804341,-5.93976065,2.23524,38.3396,14702.6,25.9502,11861.0,-0.84001,-1.0,13.0,-1210.0,80.0,,0.0,,1.068044545981914,0.01413834491709384,6.75585795715085,-1.340347840629639,-0.5154385960000001,6.897477228648144,169.04176880034416,0.25234075344035,0.3912349111097373,0.0,0.0,0.9988473694697005,-0.04799929690588712,6.812406702970619,0.25274849522518816
2023-04-19 07:15:58.064630,6.08,-6.07,-0.09,-0.38,-0.2925271974291646,6.063615080029754,1.5248928025708355,6.024524680029754,0.36212683972804205,0.0,-0.0,0.19963267686322939,-0.4797868,6.214514919092233,194.20405514408242,16.11,886.21,54.13,81.0,2.0,-0.0390904,1.81742,0.0997868,32.6917192,-103.074955,1164.52478,88.0874824,6.46250479,-6.48247788,2.23717,38.9374,14671.6,25.9554,11852.0,-0.856083,-1.0,12.0,-1175.0,80.0,,0.0,,1.0672916557650902,0.014124382616477981,6.197668833019781,-0.21040860319587754,-0.39669141999999996,6.290804658268064,178.25288929704604,0.22505223949982725,0.37060626671242636,0.0,0.0,0.9997687674479352,0.021503758639745477,6.191711154419819,0.2251412930169054
