Timestamp,Seconds,T,P,H,MD,Sts,Vx,Vy,Vz,Lat,Lon,Alt,Yaw,Roll,Pitch,CH4,C2H6,H20,T_a,Batt,R,C2C1,Power,Current,SOC,Lat_a,Lon_a,TS,Rho,Rho_err,Sc_avg,WD_avg,V_avg,U_avg,W_avg,U_err_avg,V_err_avg,Nx,Ny,cross_wind,cross_wind_err,x_dist,y_dist,s_dist,z_dist,velocity_s,velocity_z,x_src_dist,y_src_dist,s_src_dist,collecting,group,CH4_sub,CH4_adj,C2H6_sub,C2H6_adj
2023-04-19 07:14:29.063674,263.000779,16.98,887.2,52.89,20.0,1.0,-0.000985363,0.000201831,1.89218e-05,32.6910984,-103.075249,1156.1817899999999,-20.9321625,0.52786915,1.071444,2.21974,23.3978,15386.0,25.4482,11825.0,-0.69604,-1.0,14.0,-1190.0,80.0,,0.0,,1.0652799295562154,0.014074788036679815,4.035114877247307,93.16297191368731,3.959436438349454,-0.21235609577406062,-0.30675701035999997,0.15405654675164743,0.2848362065895883,0.20066293008257194,0.979660343430659,0.586475271479294,0.1613833790420137,0.0,0.0,0.0,0.0,0.0,0.0,-13.093467500876278,-22.675931742550695,26.18466672671855,False,,2.2186947618601023,0.0010452381398975419,18.410664233613247,4.9871357663867535
2023-04-19 07:14:30.063951,264.001056,17.16,887.19,52.36,25.0,1.0,-0.00416692,0.000348278,-0.00654603,32.6910984,-103.075249,1156.13918,-20.7997243,0.523900359,1.04986864,2.22097,22.8642,15393.2,25.4561,11829.0,-0.694574,-1.0,14.0,-1184.0,80.0,,0.0,,1.0646074276100121,0.014063644599690518,3.717291904382152,86.46978076844638,3.664500171268112,0.1727526138843042,-0.309073456,0.1590714796561563,0.28077314045667945,0.08329121293725078,0.9965252499798696,0.47737300580941644,0.16023449946404916,0.0,0.0,0.0,-0.04260999999996784,0.0,-0.04260999999996784,-13.093467500876278,-22.675931742550695,26.18466672671855,False,,2.21879051474335,0.0021794852566499046,18.70936579949206,4.154834200507942
2023-04-19 07:14:31.064610,265.001715,16.17,887.17,55.76,12.0,1.0,-0.000473281,-0.0102288,-0.0194,32.6910984,-103.075249,1156.0707,-20.7550374,0.516099548,1.17856801,2.22025,23.7572,15400.6,25.4632,11867.0,-0.634719,-1.0,12.0,-1200.0,80.0,,0.0,,1.0682262373983766,0.014124829926830203,4.766200236062906,80.54191121556298,4.6775560836295345,0.8434773824620947,-0.05989863600000002,0.20485452711138968,0.2886245892063394,0.998931284446839,-0.04622000598646073,4.633571577025334,0.28847156172411564,0.0,0.0,0.0,-0.11108999999987645,0.0,-0.06847999999990861,-13.093467500876278,-22.675931742550695,26.18466672671855,False,,2.2188862412665284,0.0013637587334716095,19.006528169839296,4.750671830160705
2023-04-19 07:14:32.063983,266.001088,16.7,887.13,53.91,32.0,1.0,0.107846,-0.0411766,0.0642377,32.6910988,-103.075249,1155.9429,-20.1921142,1.06808979,3.3515363,2.22436,23.3974,15382.5,25.4708,11864.0,-0.60893,-1.0,12.0,-1209.0,80.0,,0.0,,1.0662248762924604,0.01409178753112965,4.492158712500383,84.56349345300666,4.427905177670552,0.42056062260535443,-0.303016002,0.18218870682789406,0.2853045597343933,0.3566942801833493,0.9342211678636287,1.972305086077152,0.19830786441543105,0.04453560776355829,0.0,0.04453560776355829,-0.23888999999985572,0.04453560776355829,-0.12779999999997926,-13.04893189311272,-22.675931742550695,26.16242542165983,False,,2.2189817828819125,0.005378217118087392,19.30166346613726,4.095736533862741
2023-04-19 07:14:34.064047,268.001152,16.79,887.01,53.72,59.0,2.0,0.385072,-0.130323,0.660177,32.6911078,-103.07525,1157.84231,-18.4443051,1.13056469,-3.17296783,2.2226,23.9418,15363.9,25.4785,11841.0,-0.49464,-1.0,11.0,-1198.0,80.0,,0.0,,1.06574972946535,0.014085702436079565,4.564392181824359,114.31712589021063,4.1564630579819895,-1.857023644482847,-0.9834676,0.1403118916997121,0.28905958622698336,0.3205761751600125,0.9472227382827003,-0.4265519922610064,0.16202186459366913,1.0465870993744257,-0.0937023469000642,1.0507733753724227,1.6605200000001332,1.0062377676088643,1.899409999999989,-12.046880401501852,-22.769634089450758,25.760115760135232,False,,2.219172810113554,0.0034271898864459693,19.88740637806254,4.054393621937461
2023-04-19 07:14:35.063685,269.00079,16.38,886.88,54.96,28.0,2.0,0.351663,-0.00582611,1.11075,32.6911116,-103.075251,1158.9499799999999,-18.4636942,1.03721972,-3.91624163,2.22446,23.6885,15360.3,25.4857,11841.0,-0.411174,-1.0,11.0,-1198.0,80.0,,0.0,,1.0671025077757585,0.014110528383428663,5.2654702191685665,107.85846298632062,4.996578373312234,-1.5847577696869295,-2.0389308,0.13924525235403457,0.30078437763536603,0.016565036985845945,0.9998627903615863,-1.5017718200897823,0.13931527280369818,1.4696757567695584,-0.18740471955581597,1.4815759713723653,2.768190000000004,0.43080259599994264,1.107669999999871,-11.62379174410672,-22.86333646210651,25.64848316547886,False,,2.219268196992133,0.005191803007867257,20.177715147257864,3.5107848527421375
2023-04-19 07:14:36.063641,270.000746,16.41,886.82,54.99,77.0,2.0,0.535092,-0.181687,0.675036,32.6911155,-103.075252,1159.9783,-18.6729432,0.270067501,-0.107744844,2.22573,23.3978,15345.6,25.4934,11826.0,-0.348556,-1.0,11.0,-1179.0,80.0,,0.0,,1.066919765023561,0.014108407123979285,5.5387704460287255,110.76580477172384,5.171128747174991,-1.961234232222407,-1.041445,0.13663416019359903,0.3020100784520109,0.3215152193228599,0.9469044110910949,-0.1945047523795409,0.1617641018356642,1.9038984470631564,-0.2811071129636603,1.9245390371952091,3.7965100000001257,0.44296306582284384,1.0283200000001216,-11.189569053813122,-22.957038855514355,25.538834911241512,False,,2.219363556043111,0.006366443956888901,20.466491313031636,2.9313086869683644
2023-04-19 07:14:37.064390,271.00149500000003,16.19,886.7,55.19,62.0,2.0,1.09886,-0.366955,0.925974,32.6911238,-103.075257,1160.9135999999999,-18.6753655,0.978214531,-1.43510652,2.22669,23.431,15338.8,25.5007,11805.0,-0.30136,-1.0,13.0,-1159.0,80.0,,0.0,,1.0675865187255005,0.014121542325134783,6.4947881582597775,110.04932613766884,6.100259655267541,-2.2219564627539037,-1.5413314,0.13541215896828995,0.3092298595130988,0.3167469193013554,0.9485100890939963,-0.175309669705344,0.1615255873040449,2.8280133117921644,-0.7496190077208986,2.9256773486511034,4.731809999999996,1.0011383114558943,0.9352999999998701,-10.265454189084114,-23.425550750271594,25.57608214058077,False,,2.219458933402381,0.0072310665976189625,20.753874535581765,2.6771254644182356
2023-04-19 07:14:38.064620,272.001725,15.97,886.64,55.98,45.0,2.0,1.21334,-0.298997,0.597053,32.6911341,-103.075259,1161.5221199999999,-18.6745588,0.191294371,-2.14788036,2.22896,23.5484,15334.0,25.5089,11834.0,-0.162063,-1.0,14.0,-1162.0,80.0,,0.0,,1.0683265820833676,0.014134963743225506,6.488582943299238,112.3811879914529,5.999704178777103,-2.46558276885897,-1.1414506,0.13913017796457902,0.3055182318991948,0.23926704256994158,0.970953800311752,-0.9584354842562719,0.1535991733663451,3.9748064909905323,-0.9370237418235273,4.083760538224717,5.3403299999999945,1.1580831895736137,0.6085199999999986,-9.118661009885745,-23.612955484374222,25.31248003100939,False,,2.2195542049401222,0.009405795059877597,21.03949257033001,2.508907429669989
2023-04-19 07:14:39.064335,273.00144,16.22,886.55,55.7,21.0,2.0,1.2199,-0.354915,0.884803,32.6911466,-103.075263,1162.44265,-18.6440277,-0.357647075,-5.05692427,2.23138,23.6045,15326.6,25.5159,11863.0,-0.166749,-1.0,14.0,-1196.0,80.0,,0.0,,1.0672952570681264,0.01411902643238669,6.192596311619109,108.13379320837684,5.883669910638185,-1.9265920756018855,-2.1121689999999997,0.13533119754869077,0.30092750033328947,0.2793549398830447,0.9601879074238232,-0.20625815935348557,0.1547653198210051,5.366546233515194,-1.3118332444162926,5.524556537642808,6.260860000000093,1.440795999418091,0.9205300000000989,-7.726921267361083,-23.987764986966987,25.201551169361704,False,,2.21964937205882,0.01173062794117996,21.32335423787895,2.281145762121053
2023-04-19 07:14:40.064260,274.001365,16.09,886.44,55.6,36.0,2.0,0.921203,-0.183739,0.639392,32.6911574,-103.075266,1163.2748,-18.7227143,-0.27298327,-5.60302524,2.22987,23.7757,15336.1,25.5223,11874.0,-0.149268,-1.0,8.0,-1210.0,80.0,,0.0,,1.0676424711599362,0.01412662679894065,5.781973086486062,102.82440102757093,5.620180732045795,-1.2423622468201834,-2.0695592,0.14339237757620504,0.29934921928966063,0.1956026589198694,0.9806832311319885,-0.11904152764963905,0.15232596723174033,6.5690097315811204,-1.5929403819508257,6.759389611056394,7.093010000000049,1.2348330734135855,0.832149999999956,-6.524457769295157,-24.26887212450152,25.1305929770613,False,,2.219744504733555,0.010125495266445128,21.605671297540134,2.1700287024598666
2023-04-19 07:14:41.064525,275.00163000000003,16.32,886.38,54.82,33.0,2.0,0.608815,-0.104173,0.973622,32.6911666,-103.075269,1164.2408699999999,-18.6770378,-0.407958923,-4.7858513,2.22729,23.3461,15329.7,25.5288,11871.0,-0.0833894,-1.0,11.0,-1199.0,80.0,,0.0,,1.0667219623525992,0.014112079815176393,5.531599559872468,96.72091726831704,5.47416423249774,-0.6561035578292779,-2.1761472,0.1521227097965124,0.29886944033795887,0.16865666447936228,0.9856748599445437,0.2765494977928068,0.15818931626769853,7.593331043021374,-1.8740476001244244,7.821171954153941,8.059079999999994,1.0617823430975477,0.9660699999999451,-5.500136457854904,-24.54997934267512,25.158556929617404,False,,2.2198396162220835,0.007450383777916514,21.886484289831863,1.459615710168137
2023-04-19 07:14:42.064782,276.001887,16.7,886.35,53.4,34.0,2.0,0.50426,-0.138554,0.697355,32.691172,-103.07527,1164.87905,-18.8512342,-0.726502722,-2.34726834,2.23018,23.2229,15331.8,25.5357,11805.0,-0.0648321,-1.0,11.0,-1171.0,80.0,,0.0,,1.0652874089500097,0.014088411446580783,5.393823121087484,88.6085216810487,5.338506261735311,0.13189534116726115,-0.9881610000000001,0.17942557329448233,0.29362721313010365,0.26494758668840324,0.9642628149565817,1.5416061235213019,0.18969931292160266,8.194563353571965,-1.9677500571290631,8.427509053275234,8.697260000000142,0.6063370991212924,0.6381800000001476,-4.898904147304313,-24.643681799679758,25.125889327312233,False,,2.21993467434254,0.010245325657459947,22.165699875767174,1.0572001242328248
2023-04-19 07:14:43.063787,277.000892,16.42,886.26,54.39,9.0,2.0,0.997332,-0.269585,-0.0328433,32.6911791,-103.075273,1164.5554399999999,-18.5148411,0.71437886,1.68003644,2.23071,24.1144,15343.6,25.542,11806.0,0.12339,-1.0,11.0,-1163.0,80.0,,0.0,,1.0662092157682799,0.014105357128858435,6.05373168202362,84.12724688078666,6.01691269506604,0.6278733378612487,0.053915599999999994,0.2064447502972994,0.29373423654950004,0.26094132800366004,0.9653546619453839,2.1761816429481793,0.21352350162354874,8.985071046648144,-2.2488569152211575,9.262227547326443,8.373649999999998,0.8347184940512093,-0.3236100000001443,-4.108396454228133,-24.924788657771852,25.261116583787558,False,,2.220029561905137,0.010680438094863298,22.442978949293387,1.6714210507066127
2023-04-19 07:14:44.064316,278.001421,16.17,886.28,55.33,47.0,2.0,1.42455,-0.248277,0.773819,32.6911922,-103.075275,1165.19399,-18.7680484,-0.746268954,-2.94143497,2.23298,23.7463,15345.5,25.549,11837.0,0.224834,-1.0,14.0,-1178.0,80.0,,0.0,,1.067154603606336,0.014120958499439224,6.095941291280285,92.17140015318894,6.046926554036693,-0.20355861948511214,-1.3179698,0.17104060939721338,0.2929116758735188,0.171696371193956,0.9851499155554079,0.8376995894081397,0.1758457809959543,10.443615224117906,-2.436261545334306,10.72401367337351,9.01220000000012,1.4617861260470661,0.638550000000123,-2.649852276758372,-25.112193287885002,25.251613192363337,False,,2.220124543493435,0.012855456506565055,22.719096493102246,1.0272035068977559
2023-04-19 07:14:45.064566,279.001671,16.05,886.21,55.78,25.0,2.0,1.29873,-0.479789,0.517417,32.6912032,-103.075279,1165.88418,-18.8429937,-1.53783281,-2.38315335,2.23038,23.9009,15337.8,25.555,11869.0,0.241325,-1.0,11.0,-1203.0,80.0,,0.0,,1.0675130855691908,0.014128113107534028,6.539116639552077,95.53796890360186,6.506935430302872,-0.6282435813440236,-1.0090294,0.16521375700732863,0.3014542929786493,0.34653801780129195,0.9380359279997496,1.6655854551422264,0.18689759522865648,11.668347482147594,-2.8110709707118997,12.002185341283447,9.70239000000015,1.2781716679099375,0.6901900000000296,-1.425120018728684,-25.487002713262594,25.526814810579797,False,,2.220219448786201,0.010160551213798996,22.993557104534162,0.9073428954658382
2023-04-19 07:14:46.064336,280.001441,16.2,886.15,55.22,25.0,2.0,1.46869,-0.638389,0.317695,32.6912143,-103.075284,1166.28909,-18.7365441,-1.05901596,-3.09021945,2.23108,23.9265,15338.1,25.5622,11872.0,0.315205,-1.0,13.0,-1204.0,80.0,,0.0,,1.0668874457595194,0.01411852982384894,6.357479372180452,100.17468002536465,6.247793790232167,-1.1132731292508236,-1.5466686,0.15331334602240648,0.29769804340050643,0.39863584955949716,0.9171092952565566,1.4696014504464665,0.18399212015546113,12.904213349852116,-3.2795826003676383,13.31444269247255,10.107300000000123,1.3122573511891034,0.40490999999997257,-0.1892541510241621,-25.955514342918335,25.956204305312426,False,,2.22031425970308,0.010765740296919901,23.26631255032195,0.6601874496780518
2023-04-19 07:14:47.063809,281.000914,16.25,886.11,55.07,33.0,2.0,1.51338,-0.496602,0.563111,32.6912292,-103.075293,1166.79849,-18.8481433,-0.211637527,-3.78582477,2.23731,24.3594,15323.2,25.568,11857.0,0.538929,-1.0,9.0,-1198.0,80.0,,0.0,,1.0666549682784667,0.014115251448050304,6.67390621495971,92.66736719192404,6.618752205683281,-0.2895231900476495,-1.4677232000000002,0.1828512386076103,0.2992046853999636,0.3117841275565696,0.950152965476501,1.7885305643640916,0.19719771158102148,14.56316860225616,-4.122903481387745,15.135528165696062,10.616700000000037,1.821085473223512,0.5093999999999141,1.4697011013798829,-26.79883522393844,26.83910562383182,False,,2.220408994588567,0.016901005411432912,23.53741969906745,0.8219803009325517
2023-04-19 07:14:48.064744,282.001849,16.47,886.05,54.36,12.0,2.0,1.38626,-0.44822,0.14498,32.6912425,-103.075301,1167.0414099999998,-17.7660205,0.580824655,-3.36762343,2.23447,23.7365,15319.1,25.5743,11836.0,0.550317,-1.0,11.0,-1175.0,80.0,,0.0,,1.065772549905722,0.014101347921749647,6.614826961706543,88.2908376299762,6.601809726006044,0.19703471228189212,-0.9335671400000001,0.19587811324462065,0.2997162751737589,0.3076488630039277,0.9514999616880657,2.21851777716147,0.2079398101176511,16.043980699559793,-4.872521755308792,16.767551548863796,10.85961999999995,1.6320233831677342,0.24291999999991276,2.950513198683515,-27.548453497859487,27.70600689849283,False,,2.220503821020779,0.013966178979221144,23.807358051398566,-0.0708580513985666
2023-04-19 07:14:49.064074,283.001179,15.89,886.01,56.33,62.0,2.0,1.45183,-0.408813,-0.0409841,32.6912545,-103.075307,1167.25283,-14.5665395,-1.3794918,-3.70067812,2.23643,24.9341,15289.2,25.5807,11817.0,0.57542,-1.0,10.0,-1172.0,80.0,,0.0,,1.0678629646172384,0.014137199027364704,7.040825640333525,99.81256100775161,6.848493249388794,-1.211823812437193,-0.9894086799999998,0.1657905978627823,0.31625013043417394,0.2710440482369414,0.9625669451603512,0.6897817894274643,0.18114843402891026,17.38005184002055,-5.434735253572038,18.2099574200002,11.071040000000039,1.4424058711364047,0.2114200000000892,4.286584339144271,-28.11066699612273,28.435618584154287,False,,2.2205984493824054,0.01583155061759456,24.075305911587424,0.8587940884125764
2023-04-19 07:14:50.064350,284.001455,16.06,885.97,55.61,73.0,2.0,1.48783,-0.568101,-0.158911,32.6912688,-103.075315,1167.4201899999998,-14.4299557,-1.01380137,-2.70611757,2.23458,24.4431,15260.1,25.5875,11803.0,0.627364,-1.0,12.0,-1166.0,80.0,,0.0,,1.0671870844100753,0.014126446700592973,7.303761544781812,96.80189003675244,7.205554571915448,-0.8850916691706221,-0.336285814,0.17153965084619235,0.32048673279974654,0.3567127749392331,0.9342141061850608,1.7434482437179608,0.19685284452767518,18.972203147443334,-6.184353081644057,19.954716618040436,11.238399999999956,1.744759198040235,0.1673599999999169,5.878735646567057,-28.86028482419475,29.452938273385627,False,,2.2206931222121966,0.013886877787803176,24.34195390734884,0.10114609265115959
2023-04-19 07:14:51.064477,285.001582,15.63,886.02,57.29,26.0,2.0,1.60889,-0.476199,-0.127987,32.691282,-103.075322,1167.31899,-14.4997396,0.593922946,-4.33434557,2.23556,24.2489,15223.8,25.5936,11834.0,0.651955,-1.0,13.0,-1172.0,80.0,,0.0,,1.0688364670186603,0.01415345237558045,6.889931905457148,101.35644657478187,6.717869798846268,-1.3611701937232688,-0.55866258,0.1599000739281506,0.3111149815088775,0.2838093609999712,0.9588807259554173,0.6013944713853205,0.17693221003748977,20.441880531321427,-6.840268197972435,21.555967820467053,11.13720000000012,1.6012512024266172,-0.1011999999998352,7.348413030445149,-29.51619994052313,30.417186474014223,False,,2.2207877367525066,0.014772263247493367,24.607013368911034,-0.3581133689110345
2023-04-19 07:14:52.064692,286.001797,15.78,886.02,56.73,45.0,2.0,1.4891,-0.702515,-0.165891,32.6912948,-103.075329,1167.2810299999999,-14.5080953,-0.387930715,-3.57744095,2.24069,24.2936,15210.3,25.5997,11862.0,0.721567,0.0457894,14.0,-1185.0,80.0,,0.0,,1.0682815732033666,0.01414409598899665,7.2188283087029195,107.28038904709531,6.892407328206055,-2.145378539418889,-0.5545617199999999,0.15244527199430924,0.32014708031125505,0.4266729960458778,0.90440596771872,1.0005109306281266,0.19408206305786738,21.86702239886853,-7.496183207428504,23.11621576452234,11.099240000000009,1.5602479440552877,-0.037960000000111904,8.773554897992254,-30.1721149499792,31.421836135128103,False,,2.2208823163629217,0.01980768363707819,24.870552329636745,-0.5769523296367431
2023-04-19 07:14:53.064228,287.001333,16.02,886.02,55.86,31.0,2.0,1.42259,-0.511625,-0.014803,32.6913075,-103.075337,1167.18472,-14.3563184,1.40289878,-2.51812033,2.23813,24.621,15198.1,25.606,11862.0,0.712403,0.0464743,14.0,-1185.0,80.0,,0.0,,1.0673949405043703,0.014129151863185816,6.729795068592223,92.97455994283021,6.690245745691994,-0.34767241833620594,-0.5405598599999999,0.18068881178206891,0.30799673258032473,0.33842233059907045,0.9409943284376869,1.9369707837290162,0.19943355588874412,23.281030115021235,-8.24580023128261,24.698169662360527,11.002930000000106,1.5819538978381864,-0.09630999999990308,10.187562614144957,-30.921731973833303,32.5567188192961,False,,2.2209767894884083,0.017153210511591688,25.132375133586905,-0.5113751335869061
2023-04-19 07:14:54.064673,288.001778,16.49,886.1,54.22,16.0,2.0,1.28695,-0.54975,-0.00781377,32.6913198,-103.075342,1167.1948499999999,-10.581222,-0.14689847,-2.76683697,2.23975,25.1554,15185.5,25.6117,11873.0,0.711364,0.0502296,12.0,-1205.0,80.0,,0.0,,1.0657590946247275,0.014100325714526818,6.4439714012799785,96.89578833700723,6.372677465331529,-0.7876754654675528,-0.18977912339999997,0.17376131969992273,0.3114690834942194,0.39283239091523686,0.9196100872912489,1.7790398216820447,0.20125723937308226,24.650502514205584,-8.714310420743487,26.145486805793738,11.013059999999996,1.4473171434332102,0.01012999999989006,11.557035013329306,-31.390242163294182,33.45014740430259,False,,2.2210713071419987,0.018678692858001167,25.392902283014745,-0.23750228301474507
2023-04-19 07:14:55.064216,289.001321,16.26,886.08,54.97,34.0,2.0,1.43137,-0.412247,0.0361412,32.6913315,-103.075347,1167.0726599999998,4.88439574,-0.830306626,-1.893431,2.24014,25.2051,15221.6,25.6183,11873.0,0.752867,0.0605968,12.0,-1207.0,80.0,,0.0,,1.0665820008352918,0.014114500392210318,7.087906525563929,90.83517776880433,7.085968995819104,-0.09942317332223075,-0.274552262,0.21709850006398274,0.3580437684209254,0.27675889614220117,0.9609393911200385,1.8655653137452703,0.23095640971943465,25.953170848769613,-9.182820353837906,27.529825040422697,10.89086999999995,1.3843382346289594,-0.12219000000004598,12.859703347893335,-31.8587520963886,34.35625205599359,False,,2.2211656991615376,0.018974300838462188,25.65166720930202,-0.44656720930201743
2023-04-19 07:14:56.064408,290.001513,15.69,886.06,56.92,48.0,2.0,1.50181,-0.251296,-0.0520213,32.691345,-103.075351,1167.18679,4.95964575,3.23321296,-1.16442827,2.24145,24.6557,15237.7,25.6244,11870.0,0.781802,0.0638045,13.0,-1201.0,80.0,,0.0,,1.0686626836877768,0.01414988300158336,8.009387315690638,89.60848873200852,8.007770990103964,0.05724930427383024,-0.247017372,0.22288522845768283,0.3995120888071896,0.1650343155213628,0.986287825485236,1.378021296026412,0.22950374956930045,27.45625073235878,-9.557628073927736,29.072219706752417,11.00500000000011,1.54239466632972,0.11413000000015927,14.362783231482501,-32.23355981647843,35.2886939485871,False,,2.221260112965635,0.020189887034364862,25.909077068926248,-1.2533770689262482
2023-04-19 07:14:57.064176,291.001281,15.76,886.06,56.76,77.0,2.0,1.82306,-0.13001,-0.0475323,32.6913584,-103.07535,1167.22732,5.36963257,1.42685341,-2.12571486,2.24294,25.6872,15202.9,25.6306,11841.0,0.814331,0.0751778,10.0,-1179.0,80.0,,0.0,,1.0684037574205718,0.014145517354373171,8.113425312653622,89.98733900958226,8.112967252821855,0.0031036597820252336,-0.16343457,0.2244817719398382,0.38743715639809617,0.0711335112885038,0.9974668032429792,0.5801996452629956,0.22560280125245716,28.94819641486516,-9.463924477178164,30.45593443293678,11.045530000000099,1.3837147261843619,0.04052999999998974,15.85472891398888,-32.139856219728856,35.83772853796567,False,,2.2213544481881997,0.02158555181180022,26.16486023877612,-0.47766023877612085
2023-04-19 07:14:58.063714,292.000819,15.61,886.04,57.24,34.0,2.0,2.09319,0.0532583,0.0659817,32.6913773,-103.075348,1167.06216,5.45888381,1.54723662,-3.16453395,2.24399,25.033,15176.2,25.6364,11817.0,0.838792,0.0795192,12.0,-1169.0,80.0,,0.0,,1.068934624778408,0.01415478825267475,8.468625337344925,88.89565381832274,8.465696794242808,0.16142199242598446,-0.32775462,0.2246530392067782,0.3957708673587514,0.025435373408606965,-0.9996764685534839,0.05395839179033737,0.22480585563312633,31.05250681196348,-9.276517828505341,32.40851681779985,10.880370000000084,1.9525823848630708,-0.1651600000000144,17.959039311087203,-31.952449571056036,36.653596366087385,False,,2.221448724105621,0.022541275894379265,26.41907286955579,-1.3860728695557896
2023-04-19 07:14:59.063894,293.000999,15.56,886.06,57.36,37.0,2.0,1.95342,0.205925,0.0142052,32.691394,-103.075344,1167.21707,5.38352744,2.96275598,-4.14718962,2.24181,25.8931,15164.2,25.6425,11827.0,0.835594,0.0881154,15.0,-1186.0,80.0,,0.0,,1.0691438798669164,0.01415799789375487,7.9524471862847195,87.31976596727756,7.942505140308055,0.3717500920999713,-0.44111254200000005,0.2241646630655672,0.3757867076893564,0.1048367675880394,-0.994489442961408,0.4629650234479313,0.22638369845267126,32.91187248703387,-8.90170757807546,34.094453337872174,11.035280000000057,1.6859365200723246,0.15490999999997257,19.81840498615759,-31.577639320626155,37.281583674234,False,,2.221543023875313,0.020266976124687197,26.671940827584173,-0.7788408275841725
2023-04-19 07:15:00.064244,294.001349,15.6,886.06,57.27,72.0,2.0,1.95799,0.412571,-0.0858881,32.6914142,-103.075337,1167.2834699999999,5.34865559,1.21676585,-4.5378902,2.2475,25.9495,15154.9,25.6502,11820.0,0.860302,0.0959654,16.0,-1172.0,80.0,,0.0,,1.0689957733554196,0.01415549999769055,7.8411618677932395,85.74486823365801,7.816240318751094,0.5849503539790006,-0.31471543999999996,0.22427318275106742,0.3698680066846152,0.20618398787654238,-0.9785132411691351,1.0392019323264925,0.2323271387821842,35.160925031541716,-8.245790503904146,36.11486826928727,11.101679999999988,2.0204149314150968,0.06639999999993051,22.067457530665436,-30.92172224645484,37.988492843947135,False,,2.2216373038858834,0.025862696114116623,26.923347965769807,-0.9738479657698065
2023-04-19 07:15:01.064629,295.001734,15.36,886.06,58.07,54.0,2.0,1.81408,0.461994,-0.118256,32.6914339,-103.07533,1167.3195999999998,4.0736157,1.90637065,-5.77300975,2.2443,25.8496,15160.2,25.6594,11862.0,0.857253,0.098523,14.0,-1186.0,80.0,,0.0,,1.0698850284439965,0.014170500809112228,7.440307071146293,84.6349293938707,7.4070642079393165,0.6955794446795418,-0.21968595999999999,0.21980950239588282,0.35635868970333834,0.24679375466991768,-0.9690680278782933,1.1539533862702218,0.2304519605498397,37.35430783725693,-7.589873717004493,38.11758776523811,11.137809999999945,2.002719495950842,0.03612999999995736,24.260840336380653,-30.26580545955519,38.78926854096369,False,,2.2217315523381624,0.02256844766183752,27.17326491023704,-1.3236649102370421
2023-04-19 07:15:02.064838,296.001943,15.94,886.07,55.92,49.0,2.0,1.67417,0.193985,-0.100929,32.6914528,-103.075323,1167.3628199999998,2.91585563,0.484307834,-4.09901199,2.2421,26.3609,15158.8,25.6651,11873.0,0.86691,0.11381,11.0,-1208.0,80.0,,0.0,,1.0677505732092414,0.014134347521676778,7.010822734639476,86.3288223111762,6.995944422579717,0.44977031733614103,-0.14353559999999999,0.21589127481604686,0.34163898679647653,0.1150992875249363,-0.9933539922964281,0.35844707826069017,0.2180317054432272,39.45861933608359,-6.93395728437081,40.063230068623135,11.181029999999964,1.9456423033850214,0.043220000000019354,26.365151835207314,-29.609889026921504,39.64677489380621,False,,2.221825750295712,0.02027424970428804,27.421644273621663,-1.060744273621662
2023-04-19 07:15:03.064608,297.001713,15.97,886.08,55.81,41.0,2.0,1.6287,0.208179,-0.0990224,32.6914672,-103.075321,1167.29885,2.8739284,3.07955848,-3.76845458,2.24002,25.934,15168.0,25.6713,11873.0,0.855558,0.118872,11.0,-1208.0,80.0,,0.0,,1.0676518292118902,0.014132523921411852,6.232112087193056,89.47763909155634,6.229608155625689,0.05994374887003266,-0.049950020000000005,0.21634988856744025,0.3101098434796602,0.12678760496619362,-0.9919298882617342,0.730377101811007,0.21817597157990717,41.061903682449056,-6.746551878045005,41.612448813664834,11.117060000000038,1.5492187450416992,-0.06396999999992659,27.968436181572777,-29.4224836205957,40.59453121846502,False,,2.221919873954998,0.018100126045001996,27.66842711897095,-1.7344271189709488
2023-04-19 07:15:04.064453,298.001558,16.27,886.06,54.73,49.0,2.0,1.44895,0.183256,-0.0034838,32.6914825,-103.075318,1167.2240199999999,3.04473679,2.27670911,-4.50439831,2.24404,26.217,15172.7,25.6773,11871.0,0.885659,0.134287,12.0,-1209.0,80.0,,0.0,,1.0665210751032321,0.014113792853899475,7.038304029158401,89.9196655775783,7.035046166221053,0.021129158161978405,0.12321042599999998,0.21768089747254873,0.35168401663700555,0.12547546639166268,-0.9920967227714215,0.8617635302260473,0.22042276433449048,42.76539321993775,-6.465444364827303,43.25136793317149,11.042230000000018,1.638919119506653,-0.07483000000001994,29.67192571906147,-29.141376107377997,41.588976632145716,False,,2.2220139726585235,0.022026027341476517,27.913746121210643,-1.6967461212106443
2023-04-19 07:15:05.064092,299.001197,15.36,886.03,58.1,64.0,2.0,1.26698,0.0733068,-0.0108071,32.6914928,-103.075318,1167.23208,15.0493378,1.66465445,-5.97127791,2.24475,26.4832,15187.0,25.6833,11864.0,0.898231,0.146864,12.0,-1204.0,80.0,,0.0,,1.0698488045417174,0.014170369383485667,7.6203715071920115,82.02185436257102,7.522613113006734,1.0487357157399786,-0.24300477999999998,0.25128590496647873,0.4104774799812402,0.05776287071952626,-0.9983303314866474,-0.6124569460169582,0.2519843288895319,43.912187209876926,-6.465443627065764,44.3856074290985,11.050290000000132,1.1342394959270123,0.008060000000114087,30.818719709000646,-29.14137536961646,42.41477623346413,False,,2.222108020900127,0.022641979099872866,28.157537603697477,-1.6743376036974773
2023-04-19 07:15:06.064002,300.001107,15.69,886.08,56.75,63.0,2.0,1.27949,-0.398819,-0.0173355,32.6915028,-103.075324,1167.02981,48.6276657,4.85015339,-5.17761453,2.24288,26.046,15174.2,25.6896,11839.0,0.897858,0.15324,11.0,-1186.0,80.0,,0.0,,1.0686868053653986,0.014149970347817273,8.243684696844527,91.98821801480594,8.231791369079884,-0.28174256439914563,-0.09719898000000002,0.2880572951789153,0.34326693359336646,0.29758044384112986,0.954696747372335,2.1806414193901693,0.2933659409840037,45.02557795302943,-7.027655106264669,45.570720932380894,10.848020000000133,1.1851135032823947,-0.20226999999999862,31.932110452153154,-29.703586848815362,43.61149790609841,False,,2.2222020644876985,0.02067793551230146,28.39992272464557,-2.353922724645571
2023-04-19 07:15:07.067692,301.004797,15.91,886.08,55.41,61.0,2.0,1.27564,0.358736,0.103128,32.6915128,-103.07533,1166.8768599999999,36.6451281,9.71720914,-4.68508861,2.24112,26.9015,15159.2,25.6948,11828.0,0.869018,0.162531,11.0,-1175.0,80.0,,0.0,,1.0678734410217314,0.014136258763675833,7.482788434666972,83.57992574052952,7.396571282588987,0.7973583956283864,-0.5149404000000001,0.2826140985719114,0.34760274537516545,0.2707191771345356,-0.9626583647024525,1.2348099620220334,0.2878756965629648,46.138968981582174,-7.589866482541702,46.7590689803188,10.695069999999987,1.1883480479379074,-0.15295000000014625,33.045501480705894,-30.265798225092396,44.810977564803714,False,,2.22229643420677,0.018823565793229857,28.641748129787832,-1.7402481297878332
2023-04-19 07:15:09.064710,303.001815,15.95,886.08,55.76,30.0,2.0,1.93793,1.11536,0.0275919,32.6915333,-103.075313,1167.0146699999998,-16.9851696,-2.59539729,-2.0507947,2.245,26.9056,15123.6,25.701,11796.0,0.867255,0.170019,14.0,-1180.0,80.0,,0.0,,1.0677256895944025,0.014133768646198083,7.150758389326214,93.62741297795644,7.120367955345868,-0.45866944948286925,-0.43261006,0.1433038883535822,0.31123830209807013,0.4988240785850868,-0.8667032586899274,3.949341291040499,0.19882069083700035,48.421423850870994,-5.996930293728287,48.79136666146516,10.832879999999932,2.0322976811463604,0.13780999999994492,35.327956349994714,-28.672862036278982,45.499423262483454,False,,2.222484115549773,0.02251588445022712,29.118523859263174,-2.2129238592631744
2023-04-19 07:15:10.063710,304.000815,15.82,886.07,55.66,34.0,2.0,1.82588,0.449647,-0.0704344,32.6915492,-103.075303,1167.1151399999999,-18.6639584,-3.27846761,-2.59079341,2.24517,26.703,15143.6,25.7069,11796.0,0.867209,0.172359,14.0,-1176.0,80.0,,0.0,,1.0681939758765948,0.01414182116644019,7.065114197414749,102.22853823851501,6.902242948314641,-1.481708241554302,-0.35419044120000004,0.13682241773562542,0.3096996413797807,0.23911913532748963,-0.9709902363670985,3.089182601315149,0.1520991142907206,50.191718131846535,-5.059909114717568,50.446122242209405,10.933350000000019,1.6547555807442436,0.10047000000008666,37.098250630970256,-27.735840857268265,46.32015833239343,False,,2.222577962359111,0.022592037640889018,29.354851918200286,-2.651851918200286
2023-04-19 07:15:11.064737,305.001842,16.13,886.07,55.11,39.0,2.0,1.88585,0.161263,0.016357,32.691571,-103.075296,1167.3020299999998,-18.2249737,-1.37367451,-3.2557534,2.24562,27.4326,15137.6,25.712,11791.0,0.863145,0.183194,14.0,-1167.0,80.0,,0.0,,1.0670492713255655,0.014122530637847627,6.111810117846536,95.69274024684697,5.988745711800739,-0.58265328220041,-0.4137268902,0.15440503939889955,0.2893501320765874,0.08520116161554145,-0.9963637699451754,1.0907827120896463,0.15580634810042973,52.618914561861445,-4.403994023602781,52.80289133208903,11.120239999999967,2.356769089879627,0.1868899999999485,39.525447060985165,-27.079925766153476,47.9122462933134,False,,2.2226719740711607,0.02294802592883949,29.5902098312545,-2.1576098312545007
2023-04-19 07:15:12.064276,306.001381,16.05,886.09,54.86,35.0,2.0,1.94619,0.0725991,-0.080223,32.69159,-103.075293,1167.1626199999998,-13.2827512,-2.90528049,-2.60072658,2.24469,26.9971,15107.1,25.7179,11820.0,0.854977,0.19368,17.0,-1166.0,80.0,,0.0,,1.0673685356653662,0.01412759077282075,5.916998903573356,96.15270405139843,5.830801679948038,-0.6343717220644559,-0.3980168,0.16337538607362226,0.2862144815385474,0.037277265225554655,-0.9993049612091914,0.8512871498108618,0.16361008589273268,54.734358512295145,-4.122887054603044,54.88941791836992,10.980829999999969,2.0865265862808897,-0.13940999999999804,41.640891011418866,-26.79881879715374,49.51909220843558,False,,2.2227658214870667,0.021924178512933157,29.823774921936053,-2.8266749219360534
2023-04-19 07:15:13.064404,307.001509,16.06,886.1,54.63,45.0,2.0,2.03374,-0.252912,-0.00925615,32.691612,-103.075296,1167.1595699999998,2.33122754,-0.254079847,-3.49426593,2.24451,27.5313,15126.7,25.7232,11820.0,0.832324,0.198385,17.0,-1166.0,80.0,,0.0,,1.0673436747246157,0.01412701245646073,5.957733946101544,94.63003675182487,5.930242582460797,-0.4811754672926239,-0.32057323000000004,0.20491633473476253,0.28362891622335357,0.12340749602091394,0.992356080208031,0.2543389872833094,0.20634036443507084,57.18382123417863,-4.403991902724174,57.35315645735428,10.977779999999939,2.4637385389843587,-0.0030500000000301952,44.09035373330235,-27.079923645274867,51.74245410648441,False,,2.2228597005853046,0.02165029941469543,30.0560393989792,-2.5247393989791966
2023-04-19 07:15:14.063802,308.000907,16.09,886.1,54.59,28.0,2.0,2.24532,-0.167509,0.0110454,32.6916374,-103.075301,1167.2243899999999,2.72592372,1.72701941,-3.82315718,2.24631,27.2838,15145.7,25.729,11857.0,0.8387,0.212366,14.0,-1199.0,80.0,,0.0,,1.0672329697383007,0.014125147263010911,6.489721850155798,89.34244874073721,6.472589012380598,0.06981060624599507,-0.421930532,0.2159643177992001,0.2977429327042707,0.0743968719100471,0.9972287127083737,0.5511575166805425,0.21650198373830531,60.01183792467722,-4.872500342358384,60.20931780616692,11.042599999999993,2.856161348812641,0.06482000000005428,46.91837042380094,-27.54843208490908,54.408175797042176,False,,2.222953488493304,0.02335651150669582,30.28670215853639,-3.00290215853639
2023-04-19 07:15:15.063662,309.000767,16.13,886.05,54.94,39.0,2.0,2.30209,-0.202702,-0.0159892,32.6916577,-103.075307,1167.1781199999998,2.55766778,2.83256077,-3.68161308,2.24408,28.0417,15169.1,25.7342,11870.0,0.807153,0.219268,16.0,-1216.0,80.0,,0.0,,1.0670251863374423,0.014122443654124172,8.213830904748985,88.31919296810841,8.204323298536844,0.24301397625030954,-0.24508167999999997,0.21552224536631495,0.36696124925121154,0.08771193239184155,0.9961458813427324,0.9616944220325405,0.21709094202747667,62.27202357698536,-5.434710645087221,62.50872739200859,10.996329999999944,2.2994095858416657,-0.04627000000004955,49.17855607610908,-28.110642387637917,56.64572881671372,False,,2.2230472980162355,0.02103270198376439,30.516043796794953,-2.4743437967949546
2023-04-19 07:15:16.064172,310.001277,15.97,886.06,54.85,76.0,2.0,2.37973,-0.243513,0.0353496,32.6916788,-103.075313,1167.0069799999999,2.72876514,1.30357881,-3.37171902,2.24061,27.9542,15144.4,25.7402,11871.0,0.739949,0.228267,14.0,-1197.0,80.0,,0.0,,1.067627730895052,0.014132436805640289,8.863281807452,89.94008723041698,8.863266255840035,0.008963373947846248,-0.219347532,0.21527809571969367,0.39279992036008193,0.10179642694430575,0.9948052510222152,0.9111656473707437,0.2178606478237942,64.62127930334125,-5.996920512858812,64.89894293775507,10.82519000000002,2.3902155457464787,-0.17113999999992302,51.527811802464974,-28.672852255409506,58.968193508117494,False,,2.2231411476912495,0.017468852308750726,30.74410995711731,-2.7899099571173096
2023-04-19 07:15:17.064248,311.001353,15.91,886.04,55.16,42.0,2.0,2.31118,-0.25647,0.0742824,32.6917002,-103.07532,1166.99441,2.72076269,3.17794385,-4.13928222,2.24322,27.7824,15150.0,25.7459,11847.0,0.707089,0.247763,12.0,-1183.0,80.0,,0.0,,1.06782523438391,0.014136084434927709,9.139613811735424,90.45216235161806,9.139001971968996,-0.07315321196902784,-0.1218184,0.21515104389992173,0.4065317587323487,0.1102922865214157,0.99389919586137,0.9352545054614946,0.21848859812002017,67.00393833291363,-6.652832087662155,67.33340869811597,10.812620000000152,2.434465760360908,-0.012569999999868742,53.910470832037355,-29.32876383021285,61.37194190458985,False,,2.2232349367650857,0.019985063234914335,30.97065797625017,-3.1882579762501706
2023-04-19 07:15:18.063688,312.000793,15.65,886.06,56.05,29.0,2.0,2.18422,-0.422459,-0.022571,32.691722,-103.075325,1167.02993,2.85207078,2.44974531,-4.9604924,2.24495,27.3803,15159.4,25.7517,11817.0,0.698334,-1.0,13.0,-1171.0,80.0,,0.0,,1.0688106979098941,0.014152378885538181,8.64377261927719,91.3447664990186,8.640318634899785,-0.20184226659979085,-0.22954680200000005,0.21562383562672469,0.39256356070029325,0.18989484557365444,0.9818044345105383,1.4425823404621305,0.22444186610891204,69.43113356062334,-7.121339690976433,69.79538513761058,10.848140000000058,2.461976439494606,0.03551999999990585,56.33766605974706,-29.79727143352713,63.73233089996683,False,,2.2233286472591582,0.021621352740841537,31.19564925395661,-3.8153492539566116
2023-04-19 07:15:19.063924,313.001029,15.78,886.05,56.15,54.0,2.0,1.97046,-0.243648,0.107396,32.6917397,-103.07533,1166.88113,2.78227477,2.62195574,-3.45228583,2.24565,27.7576,15165.6,25.7575,11794.0,0.663051,-1.0,15.0,-1171.0,80.0,,0.0,,1.0683177444491583,0.01414422689334344,8.661404735151077,90.11695666585786,8.659442464757662,-0.018240758629686982,-0.30597754,0.21544151351528362,0.4012726850842891,0.12271574873274184,0.9924418597645721,1.0445470732528728,0.2194103370794967,71.40183597486909,-7.589847197581846,71.80409431964692,10.69934000000012,2.008709182036341,-0.14879999999993743,58.30836847399281,-30.26577894013254,65.69538194539925,False,,2.2234224143717207,0.0222275856282792,31.419410697419696,-3.6618106974196962
2023-04-19 07:15:20.063840,314.000945,15.78,886.06,56.12,40.0,2.0,1.73232,-0.00661114,0.156401,32.6917562,-103.075331,1166.78091,2.95230423,2.3065845,-9.49335075,2.24554,28.3376,15172.6,25.7622,11809.0,0.658736,-1.0,13.0,-1166.0,80.0,,0.0,,1.0683298015310887,0.014144270528841416,8.746766367927322,88.68379849148052,8.744367630011686,0.20192275759572062,-0.331179,0.21569200543116546,0.42014064128002965,0.003816322536513482,0.9999927178146335,0.23529261441074267,0.21569639426078802,73.23893180494316,-7.683547475619953,73.64087203271849,10.599120000000084,1.8367777130715695,-0.10022000000003572,60.145464304066884,-30.359479218170648,67.37339871752292,False,,2.223516134404564,0.02202386559543612,31.64169651235371,-3.3040965123537127
2023-04-19 07:15:21.064079,315.001184,15.5,886.02,57.21,52.0,2.0,0.387576,-0.0603146,0.176995,32.6917635,-103.075334,1167.0162599999999,3.03093686,2.01755573,-12.6557422,2.24162,28.4328,15189.6,25.7678,11811.0,0.559059,-1.0,15.0,-1172.0,80.0,,0.0,,1.0693178414884763,0.01416157141434883,8.78995431699877,87.57655117794,8.777930960313126,0.3694926812252356,-0.46169398,0.21850438795723176,0.4851211082049822,0.1537692364770042,0.9881067866952838,1.714873967568098,0.22842925769481143,74.05171076425542,-7.964652512351304,74.47879937777894,10.83447000000001,0.8379273450604501,0.23534999999992579,60.95824326337914,-30.640584254902,68.22574898994556,False,,2.223609868559266,0.018010131440734156,31.862654500128404,-3.4298545001284033
2023-04-19 07:15:22.064442,316.001547,15.75,886.02,56.13,72.0,2.0,-0.158306,-0.212386,0.0231519,32.6917604,-103.075338,1166.89211,27.4457608,2.26356612,-3.01945952,2.24486,28.6008,15166.8,25.7727,11862.0,0.490565,-1.0,14.0,-1196.0,80.0,,0.0,,1.0683925058693275,0.014145966261555714,7.189466071156632,73.11942619902007,6.8645423417991065,2.0447767694941734,-0.5992291200000001,0.2701872923634626,0.4764512058563799,0.8017786207633244,-0.59762115364741,4.281841439042596,0.41473226983374245,73.70655776822065,-8.339459817006345,74.17683767915366,10.710320000000138,-0.3019616986252771,-0.12414999999987231,60.61309026734437,-31.015391559557038,68.08745277472111,False,,2.2237035991113325,0.021156400888667548,32.082244622711606,-3.4814446227116065
2023-04-19 07:15:23.063909,317.001014,16.05,886.05,55.09,129.0,2.0,0.108986,-0.0741965,0.0885205,32.6917578,-103.075341,1167.16726,76.9176783,4.266848,-4.07418174,2.2466,28.5813,15154.0,25.7782,11867.0,0.495928,-1.0,11.0,-1212.0,80.0,,0.0,,1.0673203523640913,0.014127416672676984,7.138988217362782,77.35049202943726,6.958333638959334,1.538983139936957,-0.3590767,0.3262430625791932,0.2784035013219749,0.5627560784113228,0.8266230073081132,5.188003422269515,0.3118875201376771,73.41707898574663,-8.620565826910301,73.92145589729313,10.985470000000078,-0.2553817818605353,0.2751499999999396,60.32361148487035,-31.296497569460996,67.95887626125715,False,,2.2237972314415475,0.022802768558452424,32.30024944022391,-3.718949440223909
2023-04-19 07:15:24.064724,318.001829,16.15,886.02,54.74,97.0,2.0,0.490937,0.0303341,0.0223322,32.6917557,-103.075341,1167.12576,91.4127418,4.22712851,-4.25606947,2.24734,29.1217,15128.7,25.7824,11860.0,0.47705,-1.0,12.0,-1207.0,80.0,,0.0,,1.0669152953530894,0.014121070506526369,7.3149231340692396,102.28663046337476,7.025862330079258,-1.7358885881280752,-0.446752558,0.3925489291452349,0.23878197954303224,0.061670562292867784,-0.9980965593300487,2.165873307679194,0.3920783719136078,73.18326615626421,-8.62056597360833,73.68924346879903,10.943970000000036,-0.23221242849409407,-0.04150000000004184,60.08979865538793,-31.296497716159024,67.75141822679883,False,,2.2238909766985127,0.023449023301487237,32.51716232136668,-3.395462321366683
2023-04-19 07:15:25.063726,319.000831,15.74,885.95,56.15,76.0,2.0,0.33993,0.122124,-0.0605046,32.6917544,-103.075341,1167.1889899999999,91.6753309,6.29505005,-6.32352708,2.24814,29.2392,15114.8,25.7878,11840.0,0.494253,-1.0,12.0,-1189.0,80.0,,0.0,,1.0683450772850343,0.014146284251052677,8.150208873773291,102.53560994764,7.949091077122572,-1.7646654454657953,-0.37602006,0.43822474984019844,0.2349800621975738,0.3381047103748367,-0.9411084979014629,4.348366783054656,0.4199997321769772,73.03852590071345,-8.620566184583284,73.54549902673834,11.007200000000012,-0.1437444420606937,0.06322999999997592,59.94505839983717,-31.296497927133977,67.62307896763494,False,,2.2239845397370406,0.024155460262959227,32.73230395625326,-3.493103956253261
2023-04-19 07:15:26.063834,320.000939,15.66,885.98,55.88,83.0,2.0,0.111447,0.466081,0.0239323,32.6917516,-103.075338,1167.0713099999998,91.1281558,7.6777092,-7.73575232,2.24823,29.9716,15057.3,25.7883,11843.0,0.518916,-1.0,12.0,-1183.0,80.0,,0.0,,1.0686771937776394,0.014151405361189822,7.829061539089659,101.06777889265916,7.680272005948287,-1.5015347019035223,-0.32063262000000003,0.43565190678772786,0.23486738129725043,0.9725822674362024,-0.23255909586308451,7.818891914753705,0.24988792330707646,72.72677475375468,-8.339460873300457,73.20334947077681,10.889519999999948,-0.34214955596152663,-0.11768000000006396,59.6333072528784,-31.01539261585115,67.21670858522897,False,,2.2240781948874924,0.024151805112507585,32.946309259048256,-2.9747092590482573
2023-04-19 07:15:27.063969,321.001074,15.67,886.03,56.35,90.0,2.0,-0.27459,0.558064,-0.682883,32.6917459,-103.075333,1166.69338,91.3913453,6.94000439,-6.93206905,2.24972,29.6332,14992.4,25.7919,11803.0,0.54809,-1.0,14.0,-1171.0,80.0,,0.0,,1.0687005006520702,0.014150999790440193,6.961033116320744,100.84306570663215,6.836278884633631,-1.3084989299703027,0.07461180000000003,0.4115141077759395,0.2334062253216907,0.8972657141331168,0.4414909265672261,5.556268250429129,0.2772496473616717,72.0921369609659,-7.870951872219304,72.52053567765105,10.51159000000007,-0.6828137931257601,-0.3779299999998784,58.99866946008962,-30.54688361477,66.43760303198194,False,,2.224171842021573,0.02554815797842691,33.15894982628839,-3.5257498262883935
2023-04-19 07:15:28.064649,322.001754,15.73,886.07,55.52,75.0,2.0,-0.243365,0.30726,-0.911862,32.6917394,-103.075328,1165.88943,91.4997586,5.77209362,-5.73560098,2.25273,30.1885,14941.6,25.7972,11796.0,0.623111,-1.0,14.0,-1164.0,80.0,,0.0,,1.0685267696242715,0.014147431667584552,7.472438274591366,98.87812884422962,7.375839413183025,-1.1616621593044727,0.5843360000000001,0.4368193656417524,0.2275887133038656,0.7838999154307752,0.6208872060105792,5.060658719806382,0.3246334151287937,71.36842311760141,-7.402442437615754,71.75129247849964,9.707640000000083,-0.7692431991514184,-0.8039499999999862,58.27495561672513,-30.07837418016645,65.57956271166641,False,,2.224265530568399,0.02846446943160119,33.370339433792914,-3.181839433792913
2023-04-19 07:15:29.064530,323.001635,15.66,886.12,55.75,99.0,2.0,-0.0179043,0.224822,-0.415367,32.6917356,-103.075327,1165.4781699999999,91.4275171,7.54517103,-7.53547142,2.24939,31.0605,14919.8,25.8027,11803.0,0.677588,-1.0,16.0,-1170.0,80.0,,0.0,,1.0688460630603873,0.014152016947976994,7.380926061830003,97.77771323805075,7.299050272521183,-1.0114554590865301,-0.20881542000000003,0.4260737217423129,0.22346155175478208,0.996843925180676,0.07938632646988274,7.195718190466311,0.2253096908785739,70.94532960796958,-7.308740475336217,71.32080678539232,9.29638,-0.43048569310731466,-0.4112600000000839,57.851862107093304,-29.98467221788691,65.16071298928716,False,,2.2243591356343515,0.025030864365648497,33.580199493942715,-2.5196994939427135
2023-04-19 07:15:30.064408,324.001513,15.88,886.17,54.85,66.0,2.0,-0.293883,0.791329,0.00426441,32.6917318,-103.07532,1165.50967,91.2084415,6.71016152,-6.74851247,2.24668,30.9573,14894.3,25.8083,11810.0,0.642164,-1.0,14.0,-1183.0,80.0,,0.0,,1.0680927576233654,0.014138519308059016,6.807717341148967,87.7342246026813,6.771655222669551,0.2245517283883986,-0.428486016,0.4108853620631597,0.21588495633312096,0.9374404284020225,0.348145721210864,6.426200096359062,0.2478307893849451,70.52224104685547,-6.652828184418885,70.83534855650944,9.32788000000005,-0.4854582288828766,0.03150000000005093,57.42877354597919,-29.328759926969582,64.48441819423648,False,,2.224452732682469,0.02222726731753122,33.78870350910562,-2.8314035091056233
2023-04-19 07:15:31.064519,325.001624,15.61,886.15,55.89,89.0,2.0,-0.158954,0.800329,0.0745607,32.6917277,-103.075312,1165.16897,91.3921755,6.36526919,-6.38713781,2.24698,31.3592,14883.0,25.8139,11857.0,0.691521,-1.0,15.0,-1199.0,80.0,,0.0,,1.069067330760898,0.014155269029778256,7.808883888896334,105.09291757394821,7.532875279440917,-2.0353791256034874,-0.6285269,0.4409271675283808,0.25840216290639006,0.9808418320866437,0.19480580183587015,6.992055527363838,0.2676111351115268,70.06574663871793,-5.903213696363908,70.31398711484047,8.98718000000008,-0.5213614416689722,-0.3406999999999698,56.972279137841646,-28.5791454389146,63.73859226699928,False,,2.224546344735932,0.022433655264068264,33.995905014814085,-2.6367050148140834
2023-04-19 07:15:32.067569,326.004674,15.62,886.13,55.91,70.0,2.0,-0.234743,0.862125,0.0416302,32.6917255,-103.075304,1165.50625,91.2882385,8.02136854,-8.02357164,2.24621,31.0335,14869.6,25.8193,11857.0,0.680584,-1.0,15.0,-1199.0,80.0,,0.0,,1.0690061818234324,0.014154557305330948,8.278231943062226,110.0512320678666,7.776031682579584,-2.838764066971091,-0.855613578,0.45131575182196426,0.28309560646641796,0.9648722651071152,0.26271945498395194,6.757078754612584,0.29777547288491296,69.82080413150811,-5.15359965875553,70.01074402556472,9.324460000000045,-0.30324308927575316,0.3372799999999643,56.72733663063183,-27.829531401306227,63.18602329013366,False,,2.224640225987906,0.021569774012093923,34.202363011413574,-3.168863011413574
2023-04-19 07:15:33.063864,327.000969,15.74,886.12,55.35,67.0,2.0,-0.146796,0.925217,-0.0490497,32.6917244,-103.075295,1165.5101599999998,91.293026,8.16127769,-8.17413539,2.24901,31.4547,14797.6,25.8243,11863.0,0.687574,-1.0,16.0,-1203.0,80.0,,0.0,,1.068550076058259,0.014147026322433918,7.052809623193172,106.54859110351671,6.72747400328447,-2.064241689201719,-0.9205148526,0.4052186416131115,0.26175766399451367,0.9876460776766812,0.156701069715133,6.3208944311672655,0.2662078946552276,69.69833106838962,-4.310283405777685,69.83148213203675,9.32836999999995,-0.17926189352796484,0.003909999999905267,56.60486356751334,-26.98621514832838,62.7085830451356,False,,2.224733470084704,0.024276529915296052,34.4060946399986,-2.9513946399986004
2023-04-19 07:15:34.063910,328.001015,15.9,886.18,54.92,81.0,2.0,-0.26398,1.14814,0.00673617,32.6917223,-103.075283,1165.5681399999999,91.5109223,6.55684073,-6.55968469,2.25292,31.6419,14717.0,25.8298,11867.0,0.703497,0.412428,15.0,-1205.0,80.0,,0.0,,1.0680309060320479,0.014137317320246756,6.340506636098093,100.07655569984094,6.211458540118004,-1.1351994843379003,-0.571128358,0.385666922742004,0.2431646336990021,0.9745722796358044,0.22407336246299225,5.799147343784241,0.2522464130137767,69.46451940779191,-3.185861751747971,69.53753786018564,9.386349999999993,-0.2939442718511174,0.05798000000004322,56.37105190691563,-25.861793494298666,62.02038258374359,False,,2.2248270612463776,0.0280929387536224,34.60925906623805,-2.9673590662380533
2023-04-19 07:15:35.063903,329.001008,16.04,886.15,54.37,45.0,2.0,-0.0532793,1.20647,-0.0565201,32.6917214,-103.075272,1165.37563,91.3613954,6.37258507,-6.36564986,2.24849,32.5978,14727.4,25.8358,11867.0,0.696089,-1.0,11.0,-1207.0,80.0,,0.0,,1.0674777220184546,0.014128473852143067,7.521208412299866,101.03098612972455,7.372137148556431,-1.4354575174015423,-0.33129396000000005,0.4271954821808257,0.2519995220519676,0.9990263131389004,0.04411831429344956,7.301629029569041,0.2524586473583728,69.36431204465309,-2.155141729264671,69.39778397975849,9.193840000000137,-0.13975388042715053,-0.19250999999985652,56.27084454377681,-24.831073471815365,61.50601722947592,False,,2.224920644379418,0.023569355620582044,34.811080837744235,-2.213280837744236
2023-04-19 07:15:36.064444,330.001549,15.46,886.17,56.36,93.0,2.0,0.216735,1.18382,0.0482519,32.6917237,-103.075259,1165.2827399999999,91.3418958,8.47264059,-8.48108164,2.24861,31.8871,14744.5,25.8412,11868.0,0.703883,0.437124,14.0,-1203.0,80.0,,0.0,,1.0696471007098898,0.014164728017277415,7.550398450388353,99.66792331833122,7.437347120077403,-1.2615907064356529,-0.638021554,0.4207053236661574,0.2471779072300711,0.9836505456559321,-0.1800877675767761,7.542947606814318,0.2546676514103489,69.62039115578206,-0.9370181059442508,69.62669651516553,9.100950000000012,0.2289125354070478,-0.09289000000012493,56.52692365490578,-23.612949848494946,61.260627636640194,False,,2.2250142766605325,0.02359572333946769,35.01168501903994,-3.1245850190399374
2023-04-19 07:15:37.064485,331.00159,15.84,886.14,55.14,70.0,2.0,0.0821485,1.21565,0.11553,32.6917249,-103.075248,1165.4851299999998,91.3228908,7.98105215,-7.98311771,2.25347,32.9278,14692.1,25.8469,11826.0,0.734004,0.437632,16.0,-1174.0,80.0,,0.0,,1.068204431910567,0.014140880289950976,7.69705905483044,101.03019455811466,7.543017389163476,-1.49389852499801,-0.47569926,0.43003759592163887,0.25391485812428,0.9977245469696505,-0.06742201698411016,7.626575259112279,0.2549908463087452,69.75400038842511,0.09370181266536473,69.75406332406814,9.303339999999935,0.12736680890260743,0.20238999999992302,56.66053288754883,-22.58222992988533,60.994861223772055,False,,2.225107860950676,0.028362139049324053,35.21086614329169,-2.283066143291691
2023-04-19 07:15:38.063993,332.001098,15.71,886.16,55.46,131.0,2.0,-0.0712819,1.25606,0.0150193,32.6917244,-103.075234,1165.3838099999998,91.340938,7.34944066,-7.34320442,2.25232,33.3836,14639.4,25.8528,11808.0,0.749464,0.470784,12.0,-1177.0,80.0,,0.0,,1.0687092919864263,0.01414907205774944,7.723426623082981,98.65404847165964,7.623480116468775,-1.1548319365846846,-0.387279448,0.4405769520515125,0.2461866445022256,0.9983935755921696,0.056659228871233196,7.545801684934308,0.24705553087848342,69.6983296879197,1.4055271707603498,69.71250008365568,9.202019999999948,-0.04156324041245796,-0.10131999999998698,56.604862187043416,-21.270404571790344,60.46933548387825,False,,2.225201395097104,0.02711860490289597,35.40862442199472,-2.025024421994722
2023-04-19 07:15:39.063853,333.000958,15.63,886.17,55.76,81.0,2.0,-0.00385202,1.19562,0.090985,32.6917258,-103.07522,1165.2470899999998,91.3783588,7.69616418,-7.68533793,2.24639,33.9093,14629.3,25.8583,11794.0,0.675668,-1.0,16.0,-1182.0,80.0,,0.0,,1.069017417189145,0.014154107856935645,7.217514303326093,100.28843707855599,7.095873892876094,-1.2893226420849562,-0.66478912,0.41196928039952896,0.24772941921278355,0.9999948101196233,0.003221759429016271,7.091683178760241,0.2477316890820465,69.8542030497287,2.717352427775705,69.90703604022606,9.06529999999998,0.1945359565703768,-0.13671999999996842,56.760735548852416,-19.95857931477499,60.16748281514628,False,,2.2252949628519385,0.02109503714806138,35.60514004296693,-1.6958400429669283
2023-04-19 07:15:40.064113,334.001218,15.68,886.16,55.5,82.0,2.0,0.0231739,1.07334,0.106572,32.6917266,-103.075207,1165.4942899999999,91.2491154,8.82503735,-8.8056652,2.24603,33.8956,14682.8,25.8638,11796.0,0.608982,-1.0,14.0,-1197.0,80.0,,0.0,,1.0688202959637125,0.014150943675509493,6.769968109707281,99.42127647788283,6.670182791774792,-1.1159760843944262,-0.84178552,0.3928707875382279,0.24053973470612688,0.9997670075592415,-0.021585425546870714,6.692717508287616,0.24063316630627546,69.943277106215,3.935476047159177,70.0539077002457,9.3125,0.14687166001964158,0.24720000000002074,56.84980960533873,-18.740455695391518,59.85904720118919,False,,2.225388569642191,0.0206414303578093,35.80042568407606,-1.9048256840760587
2023-04-19 07:15:41.064275,335.00138,15.9,886.15,54.86,83.0,2.0,-0.224772,0.933553,-0.0187875,32.6917245,-103.075195,1165.50076,91.1288856,6.5909845,-6.54458914,2.24494,34.3305,14722.6,25.8694,11796.0,0.519217,-1.0,14.0,-1197.0,80.0,,0.0,,1.0679947498028608,0.014137186550089465,6.994705282819948,106.55076135196995,6.672173516463286,-2.025856655598608,-0.70404544,0.4019143551696917,0.2600672299530189,0.9722170584677264,0.23408116375385984,6.012586026221179,0.2697779271866328,69.70946488484114,5.059897899924443,69.89286130420301,9.318970000000036,-0.16104639604269266,0.006470000000035725,56.61599738396486,-17.61603384262625,59.29330323169446,False,,2.225482169799152,0.019457830200848125,35.99438824416241,-1.6638882441624077
2023-04-19 07:15:42.067397,336.004502,15.64,886.17,55.71,107.0,2.0,-0.136413,0.713668,0.0812436,32.6917232,-103.075188,1165.34646,90.9650079,6.07177434,-6.07881264,2.2455,33.5502,14722.5,25.8748,11809.0,0.459353,-1.0,17.0,-1187.0,80.0,,0.0,,1.0689804000688434,0.01415348364502053,7.4089525464759785,105.7561532447705,7.081931379009802,-2.061878215799132,-0.5930618400000001,0.41696185821668974,0.2559997652212322,0.9822178872736343,0.18774456561966874,6.568893246921998,0.26335146050938457,69.5647222588959,5.715810535722691,69.79914808246305,9.164670000000115,-0.09371322173996077,-0.15429999999992106,56.47125475801962,-16.960121206828003,58.9631098679119,False,,2.2255760504564,0.01992394954359966,36.187619899225574,-2.637419899225577
2023-04-19 07:15:43.064180,337.001285,15.67,886.18,55.59,79.0,2.0,-0.076612,0.900983,0.0340006,32.6917221,-103.07518,1165.43191,88.0029291,6.86759215,-6.82884376,2.24559,34.1727,14683.4,25.8803,11825.0,0.392424,-1.0,15.0,-1175.0,80.0,,0.0,,1.0688814257619397,0.01415165502968802,6.3826456346815235,92.730792037223,6.362498356276018,-0.2996392145275997,-0.92901958,0.3775251383021702,0.20685401305194856,0.9964043029142494,0.08472582330062478,6.3142335603342605,0.20857741670939464,69.44225008700977,6.465425197715818,69.74258254563037,9.250120000000152,-0.05656553683267873,0.08545000000003711,56.34878258613349,-16.210506544834878,58.63416940129258,False,,2.225669342248282,0.01992065775171792,36.37834064956677,-2.2056406495667744
2023-04-19 07:15:44.064306,338.001411,15.73,886.17,55.4,95.0,2.0,-0.0497189,1.05724,-0.00219729,32.6917213,-103.075167,1165.58352,87.8393411,7.61222119,-7.63304994,2.24685,34.8987,14583.4,25.8864,11843.0,0.367921,-1.0,18.0,-1180.0,80.0,,0.0,,1.068647361312245,0.014147868251791812,6.738823567179034,98.87788945696404,6.649572704491955,-1.0443343846856525,-0.655051562,0.3887650095583378,0.22094669730441505,0.9988960580469726,0.046975155329378286,6.593174192277341,0.2214570630556986,69.35318038653459,7.683549037099415,69.77750751877511,9.401730000000043,0.03492497314474008,0.15160999999989144,56.25971288565831,-14.99238270545128,58.22307818351261,False,,2.2257629522541382,0.021087047745861565,36.56841351606849,-1.6697135160684908
2023-04-19 07:15:45.064652,339.001757,16.32,886.18,53.4,75.0,2.0,-0.218112,1.01551,-0.0147867,32.6917187,-103.075155,1165.57083,88.2922408,4.95904051,-5.06137011,2.25066,35.0281,14541.8,25.8916,11855.0,0.381181,-1.0,17.0,-1199.0,80.0,,0.0,,1.066481270558481,0.014111211377353671,6.663400486989725,93.60116079233084,6.593838553882864,-0.4382905308079314,-0.13577422,0.3910314016445876,0.21259012644630984,0.977703143905584,0.20999181507177103,6.3547792604439985,0.22348209432430835,69.06369836014619,8.807971085995083,69.62309089542768,9.389040000000023,-0.15441662334743,-0.012690000000020518,55.97023085926991,-13.867960656555612,57.66270090111756,False,,2.225856589129148,0.024803410870851916,36.757242776524066,-1.7291427765240641
2023-04-19 07:15:46.064040,340.001145,15.71,886.17,55.55,99.0,2.0,-0.14466,0.97881,0.0090215,32.6917169,-103.075145,1165.5281,87.6335743,6.78936203,-6.75053542,2.2455,35.4082,14572.4,25.8973,11863.0,0.259277,-1.0,15.0,-1204.0,80.0,,0.0,,1.0687213519901728,0.014149115726023525,6.175575270482237,93.96240286865302,6.105908020206391,-0.4980960418226366,-0.7411425,0.371320676149581,0.2112221120130192,0.9892545190498448,0.14620361329139625,5.967473660811252,0.2158896721804781,68.86328736041304,9.744989416748664,69.54938651645581,9.34631000000013,-0.07370437897186832,-0.04272999999989224,55.76981985953676,-12.93094232580203,57.249297607904325,False,,2.2259501435337343,0.019549856466265503,36.944612164762475,-1.5364121647624742
2023-04-19 07:15:47.064531,341.001636,15.64,886.16,55.77,83.0,2.0,-0.134534,1.13009,-0.0263796,32.6917162,-103.075132,1165.77542,87.7813098,7.00594557,-7.02076861,2.24533,35.4236,14590.1,25.9026,11858.0,0.143766,-1.0,15.0,-1198.0,80.0,,0.0,,1.0689683371418648,0.014153439947881472,6.112494885482387,95.88817331620689,6.035907779800695,-0.6403943288700041,-0.58206096,0.36891615888545903,0.2166135064884956,0.9929883282221639,0.1182124359555804,5.917883401979583,0.21947117514856126,68.78535259559975,10.963113606176579,69.65353251374201,9.593630000000076,0.10414599728619578,0.24731999999994514,55.69188509472347,-11.712818136374116,56.91024665295044,False,,2.226043809337834,0.01928619066216619,37.130912481543476,-1.7073124815434753
2023-04-19 07:15:49.064008,343.00111300000003,15.76,886.14,55.35,84.0,2.0,-0.00387597,1.29841,-0.096776,32.6917172,-103.075104,1165.8501199999998,87.7481805,7.02087023,-7.0052857,2.24143,36.4883,14620.6,25.908,11848.0,-0.0514845,-1.0,13.0,-1187.0,80.0,,0.0,,1.068500220753296,0.014145866517135947,6.535519475503915,102.83695348237661,6.365450748268452,-1.4557020101272944,-0.32550920000000005,0.3761606384478223,0.2369133266599448,0.9999955444203432,0.0029851531721725283,6.3610768930223225,0.23691493216610313,68.89669259373989,13.58676473324673,70.22360305675642,9.668329999999969,0.5700705430144097,0.07469999999989341,55.803225092863606,-9.089167009303965,56.538596442499546,False,,2.226231028203608,0.015198971796391625,37.49942660279093,-1.011126602790931
2023-04-19 07:15:50.063318,344.000423,16.13,886.13,54.05,99.0,2.0,-0.0279506,1.44726,-0.130592,32.6917167,-103.075089,1165.7948199999998,87.9422936,6.78439466,-6.77987989,2.23917,35.7687,14666.1,25.9138,11835.0,-0.204951,-1.0,13.0,-1189.0,80.0,,0.0,,1.0671215262899356,0.014122791597583588,7.284187417294388,105.72824770383565,6.962325956274076,-2.0274034928847042,-0.34954128,0.40275380972360847,0.2598915543024536,0.9998135606033646,0.019309169677183297,6.921880426375384,0.25995945073813004,68.8410224009929,14.992292071720586,70.4546321172553,9.61302999999998,0.2310290604988836,-0.05529999999998836,55.74755490011662,-7.683639670830109,56.274578594003444,False,,2.2263246134465096,0.012845386553490545,37.68171241457323,-1.913012414573224
2023-04-19 07:15:51.064669,345.001774,15.64,886.12,55.8,74.0,2.0,-0.0122682,1.29396,-0.107132,32.6917159,-103.075075,1165.60745,87.755018,6.53190759,-6.51270481,2.24088,36.7895,14710.0,25.9188,11825.0,-0.326178,-1.0,14.0,-1173.0,80.0,,0.0,,1.06892008543395,0.01415326516290722,7.75276297129714,111.31312079855381,7.216097645180066,-2.829722109944817,-0.5703298419999999,0.41537988149761385,0.28208949186135146,0.9999550571387312,0.009480701592008232,7.1889455821920025,0.2821043025969486,68.75194902783583,16.304117295664433,70.6587201689708,9.425660000000107,0.2040880517155017,-0.18736999999987347,55.658481526959555,-6.371814446886262,56.02201875363335,False,,2.2264184017274555,0.014461598272544673,37.86311170989228,-1.0736117098922833
