Timestamp,Seconds,S,Um,Vm,Wm,T,P,H,MD,Sts,Vx,Vy,Vz,Lat,Lon,Alt,Yaw,Roll,Pitch,CH4,C2H6,H20,T_a,Batt,R,C2C1,Power,Current,SOC,Lat_a,Lon_a,TS,Rho,Rho_err,Vr,Ur,Wr,Sc,V,U,W,WD,V_err,U_err,Sc_avg,WD_avg,V_avg,U_avg,W_avg,U_err_avg,V_err_avg
2023-04-19 07:10:05.669701,0.0,3.45,1.94,2.85,-0.13,16.71,887.15,52.03,25.0,0.0,0.000472092,-0.000696609,0.00278551,32.6911159,-103.075253,1156.2234099999998,-25.5573686,0.533918142,1.04556597,,,,,,,,,,,,,,1.0662121289544402,0.0140912554530568,3.408082604886357,0.5206466731585111,-0.13,3.447983931355319,3.4085546968863567,0.5199500641585111,-0.13278551,81.32680882517154,0.2795280959666588,0.167621071381758,,,,,,,
2023-04-19 07:10:05.863445,0.193744,3.11,1.64,2.61,-0.42,16.75,887.17,51.88,19.0,0.0,-0.000212286,0.000197063,0.00245158,32.6911159,-103.075253,1156.22012,-25.5440015,0.53383962,1.04081906,,,,,,,,,,,,,,1.0660890479617051,0.0140888678688838,3.062058751013129,0.3542544358845989,-0.42,3.0822945414698664,3.061846465013129,0.3544514988845989,-0.42245158,83.3966064922269,0.2782144495464114,0.1527467084158437,,,,,,,
2023-04-19 07:10:06.062895,0.393194,3.47,1.48,3.1,-0.45,16.74,887.16,52.38,18.0,0.0,-0.000358939,-0.000172314,0.00120992,32.6911158,-103.075253,1156.2120599999998,-25.5272825,0.530636213,1.04603755,2.17984,57.6695,15647.8,23.3845,11888.0,-0.296743,-1.0,13.0,-1200.0,81.0,,0.0,,1.0661138064487086,0.0140894430472738,3.435171006637169,-0.0003939027505583,-0.45,3.4348121143065944,3.4348120676371696,-0.0005662167505583,-0.45120992,90.00944500868285,0.2809794927401504,0.1453448790142233,3.216160746066773,77.64023352985215,3.1045385968840784,0.657878847338015,-0.31588544,0.1678851470313351,0.2779101999142919
2023-04-19 07:10:06.263440,0.593739,3.08,2.34,1.98,-0.31,16.67,887.18,52.2,26.0,0.0,-0.000391357,-0.000327955,0.00140688,32.6911158,-103.075253,1156.21426,-25.5150885,0.533830311,1.03533736,,,,,,,,,,,,,,1.0663953442025411,0.0140938604064174,2.7948464506481585,1.2589016313038088,-0.31,3.06479803071932,2.7944550936481587,1.258573676303809,-0.31140688,65.75403214342349,0.2752817416015193,0.1890311998555481,,,,,,,
2023-04-19 07:10:06.463066,0.793365,3.06,2.26,2.05,-0.26,16.42,887.14,53.02,19.0,0.0,-0.000201307,-0.000380386,0.00157331,32.6911158,-103.075253,1156.2018099999998,-25.4985671,0.535936559,1.0464913,,,,,,,,,,,,,,1.0672678939325613,0.014109175973005,2.8232259682355774,1.1573656000937147,-0.26,3.050915112482765,2.823024661235577,1.156985214093715,-0.26157331,67.71427517975597,0.2755472197167195,0.1846818764893022,,,,,,,
2023-04-19 07:10:06.663439,0.993738,3.57,2.97,1.98,-0.15,16.84,887.15,51.69,19.0,0.0,-0.00105631,8.75544e-05,-2.30609e-05,32.6911158,-103.075253,1156.20156,-25.4812609,0.535857224,1.03738952,,,,,,,,,,,,,,1.0657341553113349,0.0140832177236419,3.0651387056327333,1.8292689018381345,-0.15,3.568633628044013,3.064082395632733,1.8293564562381344,-0.1499769390999999,59.161430069694816,0.2752409752528357,0.2249702641265851,,,,,,,
2023-04-19 07:10:06.863694,1.193993,2.85,2.32,1.66,0.02,16.87,887.15,51.52,26.0,0.0,0.000608868,-0.000710071,-0.000485844,32.6911158,-103.075253,1156.19326,-25.4646303,0.537601928,1.04594682,,,,,,,,,,,,,,1.0656239145532511,0.0140813641850198,2.4962253440241686,1.3808906661468243,0.02,2.852907211521993,2.4968342120241687,1.3801805951468242,0.020485844,61.067401528997,0.274035278199485,0.1880108441199135,,,,,,,
2023-04-19 07:10:07.063132,1.393431,2.57,0.86,2.4,-0.32,16.97,887.16,51.2,18.0,0.0,-0.00108666,6.89828e-05,0.000204555,32.6911157,-103.075253,1156.19155,-25.4485843,0.536543226,1.03887533,2.17982,56.5598,15659.3,23.3933,11826.0,-0.302561,-1.0,14.0,-1175.0,81.0,,0.0,,1.0652686176458577,0.0140752324873726,2.536673832267794,-0.2547270474209984,-0.32,2.5483431947140684,2.5355871722677947,-0.2546580646209984,-0.320204555,95.73518769394258,0.2770667611610006,0.1214217549879471,2.606907865503815,82.7773454767883,2.4111384889206464,0.4779575672036621,-0.16475035202,0.1536362031804662,0.2752288156806191
2023-04-19 07:10:07.263198,1.593497,2.22,0.99,1.96,-0.37,17.12,887.18,50.67,19.0,0.0,-0.000186432,-0.000166402,0.00198879,32.6911157,-103.075253,1156.19326,-25.4343828,0.536017376,1.04290997,,,,,,,,,,,,,,1.0647421320039292,0.0140660666572615,2.1952147192581486,0.0522717548238729,-0.37,2.19564663588118,2.1950282872581486,0.0521053528238729,-0.37198879,88.64017413117864,0.2751040760860131,0.1257887740687464,,,,,,,
2023-04-19 07:10:07.462883,1.793182,1.87,0.2,1.86,-0.0,17.44,887.18,50.11,26.0,0.0,-0.00160972,0.0005866,0.00206732,32.6911157,-103.075253,1156.18984,-25.4204674,0.537110954,1.04517872,,,,,,,,,,,,,,1.0635696295701176,0.0140463698385481,1.7657700974203887,-0.6177831035695224,-0.0,1.8690086573578228,1.764160377420389,-0.6171965035695224,-0.00206732,109.28253396012842,0.274696987703761,0.107989378599139,,,,,,,
2023-04-19 07:10:07.663817,1.994116,2.38,0.98,2.16,0.18,17.28,887.18,50.21,18.0,0.0,0.000469151,-0.000218101,0.00127599,32.6911156,-103.075253,1156.1896,-25.4071469,0.537444077,1.03140584,,,,,,,,,,,,,,1.0641555578169628,0.0140562112406511,2.371555501803725,-0.0415271220346457,0.18,2.3723919611132653,2.372024652803725,-0.0417452230346457,0.17872401,91.008243401846,0.2759117507856745,0.1255306124467642,,,,,,,
2023-04-19 07:10:07.863580,2.193879,2.23,1.4,1.73,0.19,17.0,887.19,51.04,20.0,0.0,-0.00102192,0.000412152,0.00234399,32.6911156,-103.075253,1156.19814,-25.3949529,0.537359242,1.0485756,,,,,,,,,,,,,,1.0651944935704385,0.0140735106113849,2.1632331989437725,0.5228021872443657,0.19,2.224614766556804,2.1622112789437726,0.5232143392443657,0.18765601,76.39698652924116,0.2741862139790736,0.1421385142035197,,,,,,,
2023-04-19 07:10:08.063401,2.3937,3.12,1.27,2.82,-0.41,16.8,887.17,51.81,23.0,0.0,-0.000680574,7.93245e-05,0.00323999,32.6911155,-103.075253,1156.20437,-25.3803301,0.537200056,1.03711755,2.18068,56.6228,15645.4,23.4009,11895.0,-0.223925,-1.0,14.0,-1181.0,81.0,,0.0,,1.0659052078085818,0.0140857763940061,3.0921743719789734,-0.0612997004596531,-0.41,3.092099907405176,3.0914937979789734,-0.0612203759596531,-0.41323999,91.13447122515494,0.2792192216025739,0.1366559745978781,2.854224611281232,90.53036059793313,2.830839531453772,-0.0791030969813683,-0.170507242,0.1318529029608154,0.278285818516811
2023-04-19 07:10:08.263687,2.593986,3.18,1.08,2.97,-0.38,16.54,887.17,52.68,18.0,0.0,-0.000424716,-0.000162316,0.00327725,32.6911155,-103.075253,1156.2018099999998,-25.3691604,0.538490421,1.04219941,,,,,,,,,,,,,,1.0668618695988756,0.0141018671232894,3.146315887827352,-0.2966417603864697,-0.38,3.159861377456437,3.145891171827352,-0.2968040763864697,-0.38327725,95.38970692959576,0.2800866661417923,0.1292408857241956,,,,,,,
2023-04-19 07:10:08.463080,2.793379,3.45,0.98,3.28,-0.42,16.3,887.15,53.49,22.0,0.0,-0.00111603,9.97051e-05,0.00239899,32.6911154,-103.075253,1156.20583,-25.3563309,0.540343589,1.03515878,,,,,,,,,,,,,,1.0677223966098943,0.0141166663454126,3.3836927857150387,-0.5190598538704388,-0.42,3.422155043874476,3.382576755715039,-0.5189601487704388,-0.42239899,98.72239490382776,0.282025240074941,0.1256985278317196,,,,,,,
2023-04-19 07:10:08.663463,2.993762,3.27,0.83,3.13,-0.52,16.29,887.14,53.47,23.0,0.0,-0.000377213,-0.000656809,0.00343112,32.6911154,-103.075253,1156.2107199999998,-25.3414484,0.540036796,1.03748164,,,,,,,,,,,,,,1.0677472500209086,0.0141172438207452,3.184059756769084,-0.5895451342548819,-0.52,3.2379272495412583,3.183682543769083,-0.5902019432548818,-0.52343112,100.50245778927282,0.2810513083892552,0.1208661505838915,,,,,,,
2023-04-19 07:10:08.863404,3.193703,3.79,1.53,3.44,-0.45,16.67,887.13,52.17,17.0,0.0,-0.00162247,-0.000212908,0.00203308,32.6911154,-103.075253,1156.20815,-25.3273561,0.540395311,1.03681452,,,,,,,,,,,,,,1.0663352439216398,0.0140936438559319,3.763859598879925,-0.0886618289877338,-0.45,3.763286719451137,3.762237128879925,-0.0888747369877338,-0.45203308,91.35323752125016,0.2830885064163606,0.1481365987244426,,,,,,,
2023-04-19 07:10:09.063828,3.394127,3.42,1.93,2.82,-0.22,16.6,887.13,52.48,23.0,0.0,-8.56494e-05,-0.000224074,0.00256411,32.6911153,-103.075253,1156.22256,-25.311894,0.538982574,1.03195522,2.17741,57.2258,15656.8,23.4099,11864.0,-0.265911,-1.0,11.0,-1194.0,81.0,,0.0,,1.0665928572678849,0.0140979772121738,3.3744254359648163,0.539029662554537,-0.22,3.417086545209514,3.3743397865648164,0.538805588554537,-0.22256411,80.92774979909346,0.2791646956895138,0.1676028349446998,3.3852538997198875,87.80176028297662,3.351479998881147,0.1221523034589,-0.353303646,0.1501811754761122,0.2801907670303177
2023-04-19 07:10:09.262963,3.593262,3.42,1.54,3.03,-0.4,16.59,887.14,52.51,22.0,0.0,-0.000921692,1.80377e-06,0.00394556,32.6911153,-103.075253,1156.2261,-25.2970957,0.538439199,1.04441308,,,,,,,,,,,,,,1.066641692710885,0.0140986398259465,3.397496293921758,0.0975650182592056,-0.4,3.3979756195683377,3.396574601921758,0.0975668220292056,-0.40394556,88.35462752871855,0.2804006449944302,0.148672078647374,,,,,,,
2023-04-19 07:10:09.463730,3.794029,3.11,1.89,2.47,-0.16,16.66,887.14,52.21,18.0,0.0,-4.05501e-05,-0.000531318,0.00454436,32.6911153,-103.075253,1156.24258,-25.2838891,0.539334742,1.03952837,,,,,,,,,,,,,,1.0663840586800033,0.0140943060546829,3.0406064833701527,0.653997104953373,-0.16,3.1099933648291893,3.0405659332701527,0.6534657869533731,-0.16454436,77.87072877654806,0.2772486796620291,0.1656282144801533,,,,,,,
2023-04-19 07:10:09.663244,3.993543,3.27,1.22,2.99,-0.51,16.48,887.16,52.82,24.0,0.0,-0.000276577,-0.000464447,0.00291717,32.6911152,-103.075253,1156.23464,-25.2735042,0.53829898,1.04942439,,,,,,,,,,,,,,1.0670708536802684,0.0141055422825922,3.224663915280608,-0.1733281093393193,-0.51,3.229067599153548,3.224387338280608,-0.1737925563393193,-0.51291717,93.08522301393758,0.2801400315962735,0.1349381643443055,,,,,,,
2023-04-19 07:10:09.863529,4.193828,2.81,0.7,2.68,-0.46,16.69,887.18,52.12,22.0,0.0,-0.000580717,-0.000231628,0.000437426,32.6911152,-103.075253,1156.2175499999998,-25.2612134,0.536641353,1.0499234,,,,,,,,,,,,,,1.0663217590973657,0.0140926227606272,2.7224380263694434,-0.5106184412823848,-0.46,2.769381701003616,2.721857309369444,-0.5108500692823847,-0.460437426,100.6298596907636,0.2783364500224948,0.1174546937237382,,,,,,,
2023-04-19 07:10:10.063687,4.393986,2.0,-0.17,1.99,-0.03,17.28,887.2,50.2,18.0,0.0,-0.000272468,-0.000351638,-0.00180468,32.6911152,-103.075253,1156.19692,-25.246482,0.536311878,1.05642993,2.17783,57.4003,15620.1,23.4181,11834.0,-0.353157,-1.0,14.0,-1170.0,81.0,,0.0,,1.0641795474370583,0.0140562973679484,1.7274106125305575,-1.0025231048294114,-0.03,1.99718900460062,1.7271381445305578,-1.0028747428294114,-0.02819532,120.14189008106992,0.274997464986268,0.1084718192913511,2.5756279876444608,103.90799269574276,2.4717779699331004,-0.5866559999537383,-0.2111524612,0.117038141289449,0.2776216106948586
2023-04-19 07:10:10.262968,4.593267,1.74,0.58,1.64,0.14,17.4,887.21,49.86,25.0,0.0,-0.000254059,0.000102956,-0.00308954,32.6911151,-103.075253,1156.17312,-25.233001,0.536049606,1.05006195,,,,,,,,,,,,,,1.0637520207015212,0.0140489579227757,1.730768148667795,-0.1744752577216969,0.14,1.7392770665269175,1.730514089667795,-0.1743723017216969,0.14308954,95.75389043347184,0.2736567477999179,0.1146286971224915,,,,,,,
2023-04-19 07:10:10.463774,4.794073,3.15,0.29,3.13,-0.2,16.57,887.18,52.51,20.0,0.0,-0.000206994,-3.92267e-05,-0.00269807,32.6911151,-103.075253,1156.16104,-25.2205843,0.535229432,1.04945214,,,,,,,,,,,,,,1.0667634221206008,0.0141000519475918,2.955199961817099,-1.0713511028958789,-0.2,3.1432245669376018,2.954992967817099,-1.0713903295958789,-0.19730193,109.92910025947084,0.2809773590693384,0.1096973319653587,,,,,,,
2023-04-19 07:10:10.663462,4.993761,3.17,0.32,3.16,0.08,16.54,887.15,52.56,18.0,0.0,-0.000475028,9.6368e-05,-2.58054e-05,32.6911151,-103.075253,1156.1444299999998,-25.2024798,0.531778175,1.04736923,,,,,,,,,,,,,,1.066837818698381,0.0141017803966854,2.995457155448413,-1.056047550952561,0.08,3.1756811622885466,2.994982127448413,-1.0559511829525612,0.0800258054,109.42129733490891,0.2811587926875664,0.110138680161628,,,,,,,
2023-04-19 07:10:10.863653,5.193952,3.36,0.4,3.29,-0.53,16.24,887.15,53.63,25.0,0.0,-0.000298214,-0.000500628,0.00172601,32.691115,-103.075253,1156.14053,-25.1918557,0.531811623,1.03902135,,,,,,,,,,,,,,1.0679437703401429,0.0141203928193458,3.1473403593193154,-1.0384356805309418,-0.53,3.314100619715687,3.147042145319316,-1.0389363085309418,-0.5317260100000001,108.26966058674378,0.282007364227336,0.1113321735024122,,,,,,,
2023-04-19 07:10:11.064365,5.394664,3.87,0.93,3.74,-0.36,16.51,887.11,52.73,19.0,0.0,-0.000455801,-0.000511445,0.00238436,32.691115,-103.075253,1156.12991,-25.1754121,0.533390589,1.04508564,2.17933,56.9402,15595.3,23.4266,11896.0,-0.396804,-1.0,13.0,-1180.0,81.0,,0.0,,1.066900203990904,0.0141034658990411,3.780349821282493,-0.7493031620975774,-0.36,3.853546515819452,3.7798940202824927,-0.7498146070975774,-0.3623843599999999,101.2200609633213,0.2852064134922742,0.1246132972985989,3.721671889515677,105.56219039368152,3.579637568785279,-0.9735956017647532,-0.18282385092,0.1182409981347484,0.2846977940699136
2023-04-19 07:10:11.263223,5.593522,3.97,0.37,3.95,-0.1,16.86,887.11,51.57,19.0,0.0,-0.00106111,-1.09411e-05,0.00394347,32.6911149,-103.075253,1156.1317399999998,-25.1609246,0.530936935,1.03284927,,,,,,,,,,,,,,1.065612610213459,0.0140818090487296,3.732523002446943,-1.3444969454054023,-0.1,3.966296674690251,3.731461892446943,-1.3445078865054023,-0.10394347,109.8149364270794,0.2868293618474731,0.1109952109851607,,,,,,,
2023-04-19 07:10:11.463783,5.794082,4.3,1.19,4.13,0.01,16.45,887.11,53.03,27.0,0.0,0.000578719,-0.000888455,0.00609122,32.6911149,-103.075254,1156.13186,-25.1480938,0.536212002,1.05318088,,,,,,,,,,,,,,1.067121246850847,0.0141071852948545,4.244228939429228,-0.6778795687372843,0.01,4.298734475064451,4.244807658429228,-0.6787680237372843,0.00390878,99.08499665635414,0.2882870380949182,0.1341256287259424,,,,,,,
2023-04-19 07:10:11.663280,5.993579,3.55,0.39,3.51,-0.43,16.34,887.14,53.34,19.0,0.0,-0.00166686,1.09652e-05,0.00773821,32.6911148,-103.075254,1156.14297,-25.1289811,0.535490539,1.0393626,,,,,,,,,,,,,,1.0675628313449577,0.0141141396940813,3.3434093423837425,-1.1374594363145925,-0.43,3.5300186745977964,3.3417424823837427,-1.1374484711145925,-0.43773821,108.79733469289135,0.2835034745329325,0.1114244518963931,,,,,,,
2023-04-19 07:10:11.863241,6.19354,2.21,-0.07,2.2,-0.17,16.7,887.15,52.14,20.0,0.0,0.00130689,-0.000648882,0.00933546,32.6911148,-103.075254,1156.15603,-25.1187536,0.536380711,1.04869109,,,,,,,,,,,,,,1.0662489139166258,0.0140918741258089,1.962231084561623,-0.9972708612910124,-0.17,2.2025724032584173,1.963537974561623,-0.9979197432910124,-0.17933546,116.9408309522369,0.2757658366924307,0.1085060873690588,,,,,,,
2023-04-19 07:10:12.064520,6.394819,2.84,1.9,2.11,-0.19,16.59,887.15,52.51,26.0,0.0,-0.00144156,0.000722681,0.00880438,32.6911147,-103.075254,1156.1636,-25.1055365,0.540299627,1.06105177,2.17918,56.6523,15582.4,23.4346,11850.0,-0.426943,-1.0,12.0,-1190.0,81.0,,0.0,,1.0666537160859184,0.0140986831683103,2.716808826564635,0.8252574143262752,-0.19,2.838214669507206,2.715367266564635,0.8259800953262751,-0.19880438,73.08090780588485,0.2753433751776604,0.1665040133212844,2.859100875807986,94.4174683349478,2.744904881827254,-0.193079221011384,-0.263721242,0.1340036879273112,0.2778270150706373
2023-04-19 07:10:12.262990,6.593289,2.82,1.18,2.53,-0.39,16.52,887.15,52.8,18.0,0.0,0.00025937,-0.000501542,0.00714162,32.6911147,-103.075254,1156.15945,-25.0932771,0.5399392,1.04003527,,,,,,,,,,,,,,1.066911477539041,0.0141030196749253,2.791644907129895,-0.0043257942297942,-0.39,2.791908450474564,2.791904277129895,-0.0048273362297942,-0.39714162,90.09906704857192,0.2773728908097372,0.1339012342761387,,,,,,,
2023-04-19 07:10:12.463378,6.793677,2.93,1.55,2.49,-0.1,16.67,887.16,52.17,20.0,0.0,-0.000279276,0.000408492,0.00558654,32.6911146,-103.075254,1156.16311,-25.0796224,0.541502607,1.06131083,,,,,,,,,,,,,,1.0663713040901803,0.0140937737851579,2.9122516844963737,0.3484108582522038,-0.1,2.9327901812019457,2.9119724084963736,0.3488193502522038,-0.10558654,83.16920117515403,0.2771494981404257,0.1496826527736813,,,,,,,
2023-04-19 07:10:12.662930,6.993229,3.27,0.62,3.2,-0.26,16.57,887.12,52.51,26.0,0.0,-0.00146482,0.000860367,0.0068942,32.6911145,-103.075254,1156.17996,-25.0679414,0.539816866,1.04347089,,,,,,,,,,,,,,1.0666912768904029,0.0140997918433799,3.1612686804040457,-0.7942168030811657,-0.26,3.2578788913794385,3.159803860404046,-0.7933564360811657,-0.2668942,104.09434672597946,0.2813413599607817,0.1161721251614325,,,,,,,
2023-04-19 07:10:12.863853,7.194152,3.04,-0.07,3.03,-0.21,16.62,887.13,52.39,18.0,0.0,-0.000484355,-0.000140445,0.00809522,32.6911145,-103.075254,1156.1959499999998,-25.0551752,0.541929634,1.04996247,,,,,,,,,,,,,,1.0665192407542867,0.0140967388343361,2.715233824118944,-1.3465902421896632,-0.21,3.0304369691349677,2.7147494691189435,-1.3467306871896632,-0.2180952199999999,116.38505226363912,0.2802368015531669,0.1087676815166718,,,,,,,
2023-04-19 07:10:13.064534,7.394833,2.07,0.27,2.05,-0.09,16.8,887.17,51.8,20.0,0.0,-0.0010913,0.000147017,0.00680832,32.6911144,-103.075254,1156.19827,-25.0429574,0.539865866,1.05291136,2.18132,57.7858,15553.8,23.4425,11854.0,-0.406822,-1.0,14.0,-1162.0,81.0,,0.0,,1.0659052078085818,0.0140857763940061,1.971571248242236,-0.6231426908056865,-0.09,2.0666191802084213,1.970479948242236,-0.6229956738056865,-0.09680832,107.54510167556562,0.2750057738597259,0.1101895618596154,2.7286935317585352,97.14410135032112,2.603270872783468,-0.3557715378276357,-0.139753512,0.1268065994300276,0.2774960015935409
2023-04-19 07:10:13.263396,7.593695,2.47,1.64,1.84,0.13,17.05,887.18,50.93,25.0,0.0,-8.30251e-05,-0.000591932,0.00485126,32.6911143,-103.075254,1156.1957,-25.0291964,0.537300228,1.05319038,,,,,,,,,,,,,,1.0649989616015867,0.0140703828164546,2.3610611193402637,0.7075241273198415,0.13,2.464542693941843,2.3609780942402634,0.7069321953198415,0.12514874,73.33106713221464,0.274121549825785,0.1539848025537517,,,,,,,
2023-04-19 07:10:13.463392,7.793691,2.84,1.44,2.43,-0.24,16.78,887.17,51.93,17.0,0.0,-0.000629285,-7.84241e-05,0.00211856,32.6911143,-103.075254,1156.1849599999998,-25.0152772,0.536604205,1.0569282,,,,,,,,,,,,,,1.065978736260816,0.0140870128186375,2.8109722769118517,0.2773713367184958,-0.24,2.823989924128006,2.810342991911851,0.2772929126184958,-0.2421185599999999,84.36493895420674,0.276774522768245,0.1449188260586668,,,,,,,
2023-04-19 07:10:13.663093,7.993392,2.98,0.36,2.95,-0.27,16.92,887.18,51.41,21.0,0.0,-0.000455334,-0.000399351,0.00228411,32.6911142,-103.075254,1156.1900899999998,-24.9992635,0.538717559,1.04650176,,,,,,,,,,,,,,1.0654762597193106,0.0140784056807929,2.825762377577164,-0.9204167455394614,-0.27,2.971575705603494,2.825307043577164,-0.9208160965394614,-0.27228411,108.05167881115383,0.2796988949250609,0.1114947368265854,,,,,,,
2023-04-19 07:10:13.863073,8.193372,2.95,0.64,2.88,-0.22,16.99,887.17,51.24,24.0,0.0,-7.373e-05,-0.000442565,0.00415747,32.6911142,-103.075254,1156.1921599999998,-24.9891446,0.537122392,1.04779587,,,,,,,,,,,,,,1.0652071930933285,0.0140740413422183,2.880762769701722,-0.6365578251034708,-0.22,2.9502777564916847,2.880689039701722,-0.6370003901034708,-0.22415747,102.4690382110785,0.2792640094856176,0.1169450607966488,,,,,,,
2023-04-19 07:10:14.064431,8.39473,1.1,-0.65,0.85,0.25,17.65,887.18,49.11,18.0,0.0,-0.000356823,-0.00035538,0.00537024,32.6911141,-103.075254,1156.1957,-24.9829002,0.53922805,1.06924291,2.1766,57.1233,15539.1,23.4513,11896.0,-0.42452,-1.0,11.0,-1198.0,81.0,,0.0,,1.062801577224142,0.0140334742171998,0.4959427524661041,-0.9481776132541544,0.25,1.070196361784354,0.4955859294661041,-0.9485329932541544,0.24462976,152.4140027917709,0.2712004805867735,0.1172115773178076,1.9802201943160436,100.35015596213964,1.7953852496079823,-0.3364123446861115,0.044261376,0.1208618202301964,0.2749167487291912
2023-04-19 07:10:14.263782,8.594081,0.66,0.48,0.37,0.27,18.02,887.18,48.02,22.0,0.0,-0.00196028,0.000144232,0.00338471,32.6911141,-103.075254,1156.19375,-24.9717626,0.538122091,1.06671711,,,,,,,,,,,,,,1.061451037733216,0.0140108117761576,0.5380532484182422,0.2789241865930191,0.27,0.6043797258706574,0.5360929684182422,0.2790684185930192,0.26661529,62.50032936150836,0.2705489013336944,0.1135801773641449,,,,,,,
2023-04-19 07:10:14.463387,8.793686,2.32,1.44,1.8,0.21,18.1,887.19,47.72,23.0,0.0,-0.000258055,-0.000855746,0.00349659,32.691114,-103.075254,1156.19656,-24.9563898,0.53892389,1.05754163,,,,,,,,,,,,,,1.0611714414058802,0.0140059642936119,2.239509321876678,0.54607508387351,0.21,2.3046714218300264,2.239251266876678,0.54521933787351,0.20650341,76.31573063518661,0.2738714573148096,0.1450775488457955,,,,,,,
2023-04-19 07:10:14.663393,8.993692,1.62,1.25,1.03,0.09,18.0,887.19,48.02,18.0,0.0,-0.000999814,0.000513174,0.00402712,32.691114,-103.075254,1156.19656,-24.9411621,0.53800668,1.0526474,,,,,,,,,,,,,,1.0615359172572991,0.014012077645677,1.4610527136325926,0.6990886696169789,0.09,1.619011182579607,1.4600528996325923,0.6996018436169789,0.08597288,64.39803066393,0.271501234654018,0.1371296531998,,,,,,,
2023-04-19 07:10:14.863596,9.193895,2.02,1.11,1.69,0.07,17.74,887.2,48.83,23.0,0.0,0.000479686,-0.000943495,0.00276582,32.6911139,-103.075254,1156.18728,-24.9273727,0.537969499,1.03269236,,,,,,,,,,,,,,1.062496703091013,0.014028040637093,2.000394971313979,0.2943126887202543,0.07,2.0222672617894517,2.000874657313979,0.2933691937202543,0.06723418,81.65869925910101,0.2734202819444333,0.1317510343433092,,,,,,,
2023-04-19 07:10:15.064577,9.394876,2.68,1.64,2.12,0.01,17.01,887.19,51.11,22.0,0.0,-0.000647739,0.000115818,0.000811897,32.6911139,-103.075254,1156.17385,-24.916119,0.536114666,1.05572236,2.17663,57.6455,15548.7,23.4594,11836.0,-0.466317,-1.0,11.0,-1193.0,81.0,,0.0,,1.0651577829799512,0.0140728935738643,2.613599319616128,0.59422099971485,0.01,2.6796925598911034,2.6129515806161274,0.59433681771485,0.009188103,77.18563876874138,0.275165898668376,0.1542590108844489,2.763920706317279,79.84597968870128,2.682787504991332,0.3502091211415011,-0.0745778194,0.1469849957727486,0.2768883495970441
2023-04-19 07:10:15.262974,9.593273,3.52,2.2,2.75,-0.09,16.75,887.17,52.03,18.0,0.0,-0.00141541,-6.72479e-05,0.00215328,32.6911138,-103.075254,1156.17922,-24.9000769,0.534948308,1.03109448,,,,,,,,,,,,,,1.0660890479617051,0.0140888678688838,3.4206509529635185,0.8376437536266694,-0.09,3.52032755595418,3.4192355429635186,0.8375765057266694,-0.0921532799999999,76.23585242316962,0.2784198430899853,0.1824555903809947,,,,,,,
2023-04-19 07:10:15.463661,9.79396,4.0,1.04,3.84,-0.44,16.57,887.15,52.61,24.0,0.0,-0.000225095,-0.00109582,0.00313098,32.6911138,-103.075255,1156.17788,-24.8896424,0.537351687,1.06462308,,,,,,,,,,,,,,1.066727349505502,0.0140999218938867,3.9210479394304434,-0.6727429350712473,-0.44,3.9783049713720544,3.920822844430444,-0.6738387550712472,-0.44313098,99.7516773285644,0.2859344896284082,0.1293296900551904,,,,,,,
2023-04-19 07:10:15.662942,9.993241,4.59,1.24,4.41,-0.19,16.27,887.13,53.7,21.0,0.0,-0.00312995,0.000446767,0.00270504,32.6911138,-103.075255,1156.17959,-24.8745365,0.537395541,1.04180789,,,,,,,,,,,,,,1.06780899866412,0.014118442386754,4.522473396670357,-0.7300235451058295,-0.19,4.577854023897396,4.519343446670357,-0.7295767781058294,-0.19270504,99.17038369419576,0.2907594975531037,0.1369267862497346,,,,,,,
2023-04-19 07:10:15.863689,10.193988,4.62,1.45,4.33,-0.72,16.17,887.12,53.92,18.0,0.0,9.68368e-05,-0.00235424,0.00646317,32.6911137,-103.075255,1156.1908199999998,-24.8604511,0.540285712,1.05459689,,,,,,,,,,,,,,1.068166033252756,0.0141246123560365,4.538351992614427,-0.504738735518355,-0.72,4.566690383968814,4.538448829414427,-0.507092975518355,-0.7264631699999999,96.37536736940602,0.2900506531036854,0.145774126508095,,,,,,,
2023-04-19 07:10:16.064084,10.394383,3.8,0.88,3.69,-0.22,16.1,887.1,54.16,26.0,0.0,-0.00302466,-0.000275299,0.0165682,32.6911136,-103.075255,1156.22573,-24.8464084,0.538222308,1.04874425,2.17618,58.7622,15573.4,23.4675,11866.0,-0.498473,-1.0,16.0,-1180.0,81.0,,0.0,,1.0684004474859916,0.0141288779865252,3.718208887409806,-0.7519459219829124,-0.22,3.7905712773791262,3.715184227409806,-0.7522212209829124,-0.2365682,101.44606168751442,0.2847544192385388,0.1241325077231394,4.2114543222352285,96.04373225922902,4.153083442452392,-0.4422223238015085,-0.2975852019999999,0.143403557432378,0.2869959082614116
2023-04-19 07:10:16.262863,10.593162,4.07,2.24,3.4,-0.06,16.62,887.14,52.46,20.0,0.0,-0.00194741,-0.00207939,0.0298523,32.6911135,-103.075255,1156.2550299999998,-24.835872,0.539827284,1.04408293,,,,,,,,,,,,,,1.0665312628845354,0.0140967821641077,4.02639551400436,0.6047637264300554,-0.06,4.0693256138090526,4.02444810400436,0.6026843364300554,-0.0898523,81.48292014210848,0.2825987913141735,0.1846968829017288,,,,,,,
2023-04-19 07:10:16.463249,10.793548,4.06,0.92,3.95,-0.2,16.28,887.12,53.51,18.0,0.0,-0.00330978,-0.00170551,0.0423373,32.6911135,-103.075255,1156.30044,-24.8219148,0.540212368,1.06658582,,,,,,,,,,,,,,1.0677600688964084,0.0141177778753369,3.971302384763012,-0.8231994708305009,-0.2,4.052830312121755,3.967992604763012,-0.8249049808305009,-0.2423373,101.7439284029204,0.2868161800975566,0.1254874837791922,,,,,,,
2023-04-19 07:10:16.663222,10.993521,4.71,0.06,4.7,-0.3,16.34,887.11,53.41,26.0,0.0,-0.000161802,-0.00151915,0.0390414,32.6911134,-103.075255,1156.28494,-24.8113791,0.539835696,1.04847857,,,,,,,,,,,,,,1.0675267300701416,0.0141140093626718,4.291340476235723,-1.917810448668209,-0.3,4.700855296915586,4.291178674235723,-1.919329598668209,-0.3390414,114.09769263622086,0.2934734412296308,0.1097452905176853,,,,,,,
2023-04-19 07:10:16.862916,11.193215,4.16,0.55,4.12,-0.28,16.43,887.12,53.17,19.0,0.0,0.00131003,-0.000919789,0.0307622,32.6911133,-103.075255,1156.30496,-24.7984169,0.544082605,1.10851996,,,,,,,,,,,,,,1.0672069781776623,0.0141084689427441,3.97077580930204,-1.2287552531980197,-0.28,4.158072464999678,3.97208583930204,-1.2296750421980194,-0.3107622,107.20143584339742,0.288237714278061,0.1156375225604911,,,,,,,
2023-04-19 07:10:17.063777,11.394076,3.38,1.11,3.18,0.23,16.28,887.1,53.62,18.0,0.0,-0.00364537,0.000609102,0.025151,32.6911133,-103.075255,1156.31912,-24.7845384,0.540557996,1.05804811,2.17419,58.3176,15557.3,23.4761,11896.0,-0.526725,-1.0,13.0,-1206.0,81.0,,0.0,,1.0677359963905717,0.014117690939673,3.352412104802175,-0.325319964920461,0.23,3.364472586991336,3.348766734802175,-0.324710862920461,0.204849,95.53833187809222,0.2810425804777183,0.1322019841542207,3.7672503309036154,99.15022607420109,3.626085564707088,-0.6869641841703044,-0.08671348,0.1296405146654393,0.2843967919802068
2023-04-19 07:10:17.263317,11.593616,3.25,1.86,2.65,0.21,16.36,887.14,53.33,26.0,0.0,0.00139362,-0.00319695,0.0177852,32.6911132,-103.075255,1156.3185099999998,-24.7696163,0.543788166,1.0707963,,,,,,,,,,,,,,1.067489081710655,0.0141128984314237,3.1854848064050145,0.5786074214550023,0.21,3.2384087628565004,3.1868784264050145,0.5754104714550023,0.1922148,79.76516473559771,0.2777275430425542,0.1652137292013682,,,,,,,
2023-04-19 07:10:17.463064,11.793363,3.38,0.91,3.25,-0.17,16.5,887.15,52.93,18.0,0.0,-0.000905111,-0.00214222,0.0108276,32.6911132,-103.075255,1156.31436,-24.7524038,0.541292746,1.07861397,,,,,,,,,,,,,,1.0669851465518176,0.0141042591743325,3.3324232597904864,-0.5343736685198353,-0.17,3.3744425427549687,3.3315181487904866,-0.5365158885198352,-0.1808276,99.14850527769715,0.2815026808730693,0.1254040468934313,,,,,,,
2023-04-19 07:10:17.662965,11.993264,4.5,2.3,3.86,0.09,16.26,887.13,53.67,18.0,0.0,0.00230078,-0.00665596,0.00296292,32.6911131,-103.075255,1156.29641,-24.7333773,0.545060827,1.06618021,,,,,,,,,,,,,,1.0678458947284808,0.0141190634852778,4.468212718341306,0.4739990544853416,0.09,4.49487491559164,4.4705134983413055,0.4673430944853416,0.08703708,84.0320325591752,0.2860766327072991,0.1880830229023996,,,,,,,
2023-04-19 07:10:17.863780,12.194079,4.28,2.55,3.44,0.03,16.22,887.11,53.81,26.0,0.0,0.000798155,-0.00411671,0.00245536,32.6911131,-103.075255,1156.329,-24.7224557,0.547603788,1.07679746,,,,,,,,,,,,,,1.0679694269896851,0.0141214614487104,4.191173441239924,0.8775905568345026,0.03,4.282006822132137,4.191971596239924,0.8734738468345026,0.02754464,78.22979291974316,0.2828389662307204,0.2017825450798662,,,,,,,
2023-04-19 07:10:18.063963,12.394262,3.32,2.58,2.07,0.34,16.35,887.09,53.35,18.0,0.0,0.00170763,-0.00342648,0.0187228,32.6911131,-103.075255,1156.35464,-24.7077468,0.54196882,1.04971259,2.1768,58.6814,15518.2,23.4842,11830.0,-0.599034,-1.0,14.0,-1181.0,81.0,,0.0,,1.067465788541074,0.0141133018382693,2.958908917679148,1.4785662030760789,0.34,3.3077617122441825,2.960616547679148,1.475139723076079,0.3212772,63.51502481676572,0.2746902827508795,0.2034725325310047,3.370505507395316,69.94834391741115,3.156672225407848,1.0118778296144586,0.189072824,0.185585362310804,0.2776057225749646
2023-04-19 07:10:18.263044,12.593343,2.54,2.16,1.23,0.53,17.14,887.13,50.72,18.0,0.0,0.000390489,-0.00365429,0.029609,32.691113,-103.075255,1156.3796599999998,-24.6975465,0.542355415,1.0686442,,,,,,,,,,,,,,1.064608771894897,0.0140646183672983,2.019995912983849,1.4484876635748565,0.53,2.483848765669308,2.020386401983849,1.4448333735748564,0.500391,54.43040777143583,0.2716235072923516,0.1806955107516397,,,,,,,
2023-04-19 07:10:18.463777,12.794076,2.29,1.62,1.61,0.04,17.63,887.17,49.2,25.0,0.0,0.000439379,-0.00097792,0.0308858,32.691113,-103.075255,1156.37527,-24.6850096,0.539758669,1.05104107,,,,,,,,,,,,,,1.0628626968983366,0.0140346584136248,2.1394337037950124,0.7995770301015132,0.04,2.2840353213393088,2.1398730827950123,0.7985991101015132,0.0091142,69.53446151993579,0.2727992238935724,0.1538932002891097,,,,,,,
2023-04-19 07:10:18.662888,12.993187,3.45,2.43,2.45,0.09,16.79,887.16,51.88,18.0,0.0,0.000509232,-0.000513314,0.0212623,32.6911129,-103.075255,1156.34438,-24.6765468,0.541014367,1.07491285,,,,,,,,,,,,,,1.06592995568537,0.014086351317194,3.2407771401539054,1.1852272051618942,0.09,3.451012076220914,3.2412863721539056,1.1847138911618942,0.0687377,69.92227204482474,0.2765320324268908,0.195226542511069,,,,,,,
2023-04-19 07:10:18.863469,13.193768,4.75,3.85,2.75,0.42,16.54,887.11,52.73,20.0,0.0,-0.000445239,0.00019035,0.0131816,32.6911129,-103.075255,1156.32498,-24.6634395,0.539553673,1.07459124,,,,,,,,,,,,,,1.0667897168973912,0.0141016069477428,4.105686227962841,2.351242351931476,0.42,4.730987141091525,4.105240988962841,2.351432701931476,0.4068183999999999,60.19643714714558,0.2782168171245354,0.2780711990664702,,,,,,,
2023-04-19 07:10:19.064589,13.394888,4.09,3.27,2.3,0.85,16.54,887.13,52.77,25.0,0.0,0.00113191,-0.00091102,0.0105675,32.6911128,-103.075255,1156.34133,-24.6523353,0.540544924,1.10412957,2.17572,58.7177,15496.5,23.492,11879.0,-0.584193,-1.0,14.0,-1165.0,81.0,,0.0,,1.0668137677978862,0.0141016936715032,3.4543210396984785,2.012601837099534,0.85,3.99838155147586,3.4554529496984783,2.011690817099534,0.8394325,59.7929508526842,0.2757271660025995,0.2432546154056199,4.189647657390024,63.183119571127165,3.719685813687292,1.899507721926428,0.5757215179999999,0.2441877607394976,0.2773502046549983
2023-04-19 07:10:19.263829,13.594128,4.35,3.54,2.37,0.87,16.44,887.1,52.95,17.0,0.0,-0.00202169,0.000746628,0.00861648,32.6911128,-103.075255,1156.3373,-24.6390369,0.539588667,1.08419288,,,,,,,,,,,,,,1.0671460666297976,0.014107761985613,3.630043527602182,2.229637635965429,0.87,4.258774051186905,3.628021837602182,2.230384263965429,0.86138352,58.41821559427577,0.2760710640817668,0.2593402812556462,,,,,,,
2023-04-19 07:10:19.463083,13.793382,4.56,3.3,3.07,0.71,16.46,887.1,52.99,21.0,0.0,0.00264749,-0.00149152,0.00776453,32.6911128,-103.075255,1156.3561,-24.6232278,0.534079647,1.07735795,,,,,,,,,,,,,,1.0670723712417496,0.0141065218632225,4.165779430019051,1.7208084554738063,0.71,4.509083466974919,4.168426920019051,1.7193169354738065,0.70223547,67.58572221670552,0.2802039436391991,0.2450461654586826,,,,,,,
2023-04-19 07:10:19.663591,13.99389,4.1,3.19,2.52,0.56,16.64,887.11,52.33,24.0,0.0,0.00195629,-0.000227201,0.010987,32.6911127,-103.075255,1156.3832,-24.6129944,0.536740351,1.10626408,,,,,,,,,,,,,,1.0664215918009776,0.0140954140352039,3.61963052548086,1.85061472462724,0.56,4.066918372633037,3.62158681548086,1.85038752362724,0.5490130000000001,62.936020327416166,0.2768481476165079,0.2385671332748103,,,,,,,
2023-04-19 07:10:19.862990,14.193289,4.64,1.55,4.37,-0.2,16.91,887.07,51.5,17.0,0.0,-9.14565e-05,9.25127e-05,0.0195442,32.6911127,-103.075255,1156.4063999999998,-24.6002375,0.541288701,1.06863096,,,,,,,,,,,,,,1.0653808814634096,0.0140785478840548,4.618595325685418,-0.4098502379611399,-0.2,4.636645272510274,4.618503869185418,-0.4097577252611399,-0.2195442,95.07005695268565,0.2904847037114583,0.1509071409230619,,,,,,,
2023-04-19 07:10:20.064825,14.395124,3.5,0.87,3.38,-0.23,16.9,887.11,51.61,21.0,0.0,0.000924918,-0.00130154,0.0143032,32.6911126,-103.075256,1156.39126,-24.6013319,0.538624664,1.09353272,2.17203,58.7158,15501.1,23.5011,11884.0,-0.635551,-1.0,12.0,-1191.0,81.0,,0.0,,1.0654656545009664,0.0140793382793316,3.4353680175039205,-0.616073521839061,-0.23,3.4913122326103885,3.4362929355039205,-0.617375061839061,-0.2443032,100.18527579569336,0.2823483910637511,0.1246744321353438,3.810459860505145,92.52941774243878,3.6719524595307065,-0.1205813344126021,0.08060528,0.1518372806463576,0.282744550240009
2023-04-19 07:10:20.262865,14.593164,3.3,0.44,3.27,0.16,17.05,887.14,51.2,23.0,0.0,-0.00261885,-0.00230333,0.0111676,32.6911126,-103.075256,1156.40481,-24.5956305,0.540073884,1.05301255,,,,,,,,,,,,,,1.0649509443351195,0.0140702101934179,3.156438917229901,-0.9609335886503958,0.16,3.297636483591412,3.1538200672299013,-0.9632369186503958,0.1488324,106.98367284627902,0.2815573631344027,0.1143438760649194,,,,,,,
2023-04-19 07:10:20.463816,14.794115,3.57,1.05,3.4,0.18,16.62,887.12,52.5,17.0,0.0,0.000891342,-0.00356917,0.0109716,32.6911125,-103.075256,1156.40859,-24.5788674,0.542806652,1.06092934,,,,,,,,,,,,,,1.066507218624038,0.0140966955049197,3.528667268253432,-0.4593553199396537,0.18,3.5597869411806133,3.529558610253432,-0.4629244899396537,0.1690284,97.47206279011972,0.2824841456739247,0.1306938208336524,,,,,,,
2023-04-19 07:10:20.663067,14.993366,2.91,2.27,1.75,0.47,16.76,887.16,52.06,22.0,0.0,-0.00202764,-0.00258227,0.00526446,32.6911125,-103.075256,1156.3758799999998,-24.5627901,0.537475057,1.04940507,,,,,,,,,,,,,,1.0660402585333937,0.0140882061898947,2.5352527502052755,1.3371213454943385,0.47,2.863254093334333,2.5332251102052754,1.3345390754943385,0.4647355399999999,62.21909966367332,0.2731535058561792,0.1867545975644475,,,,,,,
2023-04-19 07:10:20.863085,15.193384,1.87,1.45,1.09,0.47,16.97,887.17,51.37,22.0,0.0,-0.00261424,-0.00334864,0.00506551,32.6911124,-103.075256,1156.3974899999998,-24.542665,0.538301606,1.039266,,,,,,,,,,,,,,1.06528062527264,0.0140752756757782,1.5938084711861629,0.8662416274777067,0.47,1.8101059055199853,1.5911942311861629,0.8628929874777067,0.46493449,61.52934711000634,0.271022335659031,0.1466318223423416,,,,,,,
2023-04-19 07:10:21.064628,15.394927,2.56,-0.43,2.52,-0.11,16.69,887.19,52.23,17.0,0.0,-0.00231324,-0.00173479,0.00611569,32.6911124,-103.075256,1156.35293,-24.5260563,0.535191781,1.05423302,2.17381,58.9618,15515.7,23.509,11891.0,-0.694618,-1.0,12.0,-1170.0,81.0,,0.0,,1.066333778324119,0.0140926660636389,2.114130901310449,-1.4372719061208523,-0.11,2.555487058488731,2.1118176613104493,-1.4390066961208523,-0.11611569,124.27077944440816,0.2767616328231992,0.1144515228611038,2.464136740076394,98.65267351891688,2.106420984769368,-0.3942561995264454,0.0703860779999999,0.1349068542613864,0.2749222236390867
2023-04-19 07:10:21.263493,15.593792,2.26,-0.38,2.22,-0.11,16.69,887.16,52.22,24.0,0.0,-0.000387849,-0.00159859,0.00293834,32.6911123,-103.075256,1156.36343,-24.5123052,0.537462178,1.0406598,,,,,,,,,,,,,,1.0662977206438593,0.0140925361556687,1.86225856527943,-1.2668042611403707,-0.11,2.252866697547793,1.86187071627943,-1.2684028511403709,-0.11293834,124.26471977443734,0.275169773865893,0.1137273031935219,,,,,,,
2023-04-19 07:10:21.463288,15.793587,2.86,-0.32,2.82,-0.34,16.97,887.14,51.31,22.0,0.0,0.000575259,-0.000735941,0.00868561,32.6911123,-103.075256,1156.35781,-24.4987055,0.535007635,1.05333555,,,,,,,,,,,,,,1.065244602392292,0.0140751461116241,2.43342194586552,-1.4605675723430491,-0.34,2.838969945491129,2.43399720486552,-1.4613035133430494,-0.34868561,120.97942160205928,0.2785038699911311,0.1129690253455171,,,,,,,
2023-04-19 07:10:21.663577,15.993876,2.41,-0.61,2.33,0.14,16.89,887.15,51.69,17.0,0.0,-0.000163291,0.000244733,0.00997907,32.6911122,-103.075256,1156.35024,-24.4906967,0.535478253,1.03840291,,,,,,,,,,,,,,1.0655504333841332,0.0140801287678071,1.8674938787683752,-1.5210084196882834,0.14,2.4082453601668425,1.8673305877683752,-1.5207636866882834,0.13002093,129.15954940500694,0.2757025472319879,0.1181196886786333,,,,,,,
2023-04-19 07:10:21.863766,16.194065,1.66,-0.63,1.52,0.23,17.43,887.17,49.82,24.0,0.0,-0.000257587,-0.000451771,0.00874141,32.6911122,-103.075256,1156.3683099999998,-24.483962,0.540339139,1.03493356,,,,,,,,,,,,,,1.063594242563488,0.0140469415136578,1.122221254298314,-1.2032952490561568,0.23,1.6455422689896362,1.1219636672983142,-1.2037470200561569,0.22125859,137.0139697293684,0.2721995715334718,0.1186046325273922,,,,,,,
2023-04-19 07:10:22.064107,16.394406,1.31,-0.73,0.96,0.52,17.55,887.18,49.39,20.0,0.0,-0.000623203,0.000340679,0.00761059,32.6911122,-103.075256,1156.35989,-24.478014,0.538457972,1.05355639,2.17406,58.6079,15523.2,23.5151,11891.0,-0.745047,-1.0,12.0,-1170.0,81.0,,0.0,,1.0631671780419003,0.0140396119888477,0.5712443748540847,-1.0621581163826628,0.52,1.205431371791034,0.5706211718540848,-1.0618174373826628,0.51238941,151.7463957340447,0.2706188170722038,0.1211148475644845,2.4937584132362254,129.31175946767456,2.0226274299516467,-1.3580548138236972,0.1052441899999999,0.1160367259677868,0.2779880100062878
2023-04-19 07:10:22.263227,16.593526,2.28,0.04,2.28,-0.05,17.3,887.19,50.24,18.0,0.0,-0.00130502,-0.000380463,0.0050148,32.6911122,-103.075256,1156.3688,-24.4680634,0.542839661,1.05025803,,,,,,,,,,,,,,1.0640942754672496,0.0140550233549553,2.0918058348651885,-0.9079363134184858,-0.05,2.2793053817501696,2.090500814865188,-0.9083167764184858,-0.0550148,113.48481191652417,0.2754204328773529,0.1111211338001677,,,,,,,
2023-04-19 07:10:22.463802,16.794101,4.94,-0.06,4.93,-0.28,16.37,887.16,53.26,25.0,0.0,-0.00023229,-0.000265516,0.00243318,32.6911121,-103.075256,1156.35159,-24.4528529,0.541847569,1.05403512,,,,,,,,,,,,,,1.0674762757371377,0.0141123647480467,4.462953197972269,-2.095363632572897,-0.28,4.930267683483444,4.46272090797227,-2.095629148572897,-0.28243318,115.1540705534286,0.2959986813164226,0.1112233272682562,,,,,,,
2023-04-19 07:10:22.663246,16.993545,4.0,-0.28,3.96,-0.5,16.48,887.12,53.03,19.0,0.0,-0.00153271,-4.26912e-05,0.00198148,32.6911121,-103.075256,1156.35549,-24.4363821,0.542754377,1.05243274,,,,,,,,,,,,,,1.0670227419144682,0.0141053687342174,3.489436664601019,-1.8931010970727664,-0.5,3.968559864686079,3.487903954601019,-1.8931437882727664,-0.50198148,118.49196168985758,0.2868860185744366,0.1127546199590784,,,,,,,
2023-04-19 07:10:22.863381,17.19368,4.04,0.74,3.94,-0.54,16.75,887.11,52.1,18.0,0.0,-0.000465053,-0.000354539,0.00250345,32.6911121,-103.075257,1156.36953,-24.4232592,0.542566999,1.04651286,,,,,,,,,,,,,,1.0660169475267516,0.0140886082070338,3.89340341629462,-0.9553061488263194,-0.54,4.008522976193061,3.89293836329462,-0.9556606878263194,-0.54250345,103.79255031883191,0.2867154735889464,0.1215804662953692,,,,,,,
2023-04-19 07:10:23.063870,17.394169,2.87,1.45,2.47,0.11,17.0,887.15,51.28,25.0,0.0,-0.00135135,0.000840803,0.00275725,32.691112,-103.075257,1156.37563,-24.4109887,0.537217173,1.05160861,2.17395,59.0838,15542.3,23.5191,11873.0,-0.814089,-1.0,11.0,-1210.0,81.0,,0.0,,1.0651464680294125,0.014073337905773,2.8484475734092896,0.2995770711164838,0.11,2.862901990016442,2.8470962234092894,0.3004178741164838,0.10724275,83.97659337060375,0.2763676490256181,0.1469889727800366,3.1024380958187296,97.27722479978222,2.9645928547002462,-0.5071376819630198,-0.1802076723999999,0.1283518468330703,0.2797594660870282
2023-04-19 07:10:23.263143,17.593442,2.29,0.55,2.22,-0.18,16.69,887.17,52.33,18.0,0.0,-1.55262e-05,-0.000460984,0.00281336,32.691112,-103.075257,1156.36611,-24.3955915,0.536867214,1.0308809,,,,,,,,,,,,,,1.0663097398706125,0.0140925794579704,2.248957181563469,-0.4160427808460295,-0.18,2.2871847226142226,2.2489416553634696,-0.4165037648460295,-0.1828133599999999,100.49229203378268,0.2750350639349708,0.1171863713405896,,,,,,,
2023-04-19 07:10:23.463352,17.793651,2.39,1.36,1.96,0.22,16.94,887.18,51.5,18.0,0.0,-0.000552261,-0.000330228,0.000982822,32.6911119,-103.075257,1156.35439,-24.3832244,0.536578617,1.0614371,,,,,,,,,,,,,,1.0654028013953616,0.0140771707893314,2.3466363378328348,0.4295321850135334,0.22,2.385020925583845,2.3460840768328346,0.4292019570135334,0.219017178,79.63272658583517,0.2737931253111687,0.1432488037902779,,,,,,,
2023-04-19 07:10:23.663095,17.993394,2.8,0.32,2.73,-0.55,16.93,887.17,51.56,25.0,0.0,-0.00156874,0.000727835,0.0013421,32.6911119,-103.075257,1156.35854,-24.3727977,0.534716684,1.02690188,,,,,,,,,,,,,,1.0654275200086123,0.0140777450025573,2.618756593071781,-0.8351131098498443,-0.55,2.7469748897929023,2.6171878530717807,-0.8343852748498444,-0.5513421000000001,107.68279396134317,0.2778422068915684,0.1134763996888136,,,,,,,
2023-04-19 07:10:23.863400,18.193699,4.12,0.03,4.08,-0.53,16.69,887.16,52.23,18.0,0.0,0.000651301,-0.000866716,0.00184329,32.6911119,-103.075257,1156.36343,-24.3628177,0.53635685,1.04821333,,,,,,,,,,,,,,1.0662977206438593,0.0140925361556687,3.729057743369944,-1.6557259273843186,-0.53,4.081057306847088,3.729709044369944,-1.6565926433843186,-0.5318432900000001,113.94894341998996,0.287926171228031,0.1115417711104276,,,,,,,
2023-04-19 07:10:24.063981,18.39428,4.25,0.04,4.19,-0.77,16.67,887.13,52.36,19.0,0.0,-0.00326872,0.000835498,0.0042593,32.6911119,-103.075257,1156.36428,-24.3559085,0.534085359,1.03989512,2.17461,59.6053,15547.5,23.5272,11828.0,-0.818004,-1.0,12.0,-1175.0,81.0,,0.0,,1.0663352439216398,0.0140936438559319,3.833591554546012,-1.6915306065553457,-0.77,4.186863141653614,3.830322834546012,-1.6906951085553457,-0.7742593,113.81654572803866,0.2889067586896988,0.1115840311312865,3.0955805303995527,98.37905159900086,2.8928679997712035,-0.7155336001374406,-0.3406860488,0.1215812837678938,0.2804662375709538
2023-04-19 07:10:24.263784,18.594083,2.8,1.03,2.6,0.06,16.99,887.12,51.23,25.0,0.0,8.11221e-06,-0.00137031,0.00534558,32.6911118,-103.075257,1156.36917,-24.3422045,0.535763041,1.03825828,,,,,,,,,,,,,,1.0651471590979784,0.0140738254443343,2.793410913780828,-0.1332496407881156,0.06,2.796660935100596,2.793419025990828,-0.1346199507881156,0.0546544199999999,92.75905337163736,0.277037997712629,0.1307705375790923,,,,,,,
2023-04-19 07:10:24.463598,18.793897,1.67,1.29,1.06,0.1,17.28,887.17,50.43,18.0,0.0,-0.00365697,-3.48828e-05,0.000639974,32.6911118,-103.075257,1156.3408399999998,-24.3323437,0.535699406,1.04898847,,,,,,,,,,,,,,1.064143563006915,0.0140561681775327,1.4973582108774537,0.7386598596904205,0.1,1.666346378603566,1.4937012408774537,0.7386249768904205,0.099360026,63.68792151399509,0.2706180533328416,0.1405336793298489,,,,,,,
2023-04-19 07:10:24.663144,18.993443,2.88,1.97,2.1,-0.09,16.88,887.17,51.77,19.0,0.0,-0.00253085,-0.000624656,-0.00610581,32.6911118,-103.075257,1156.33853,-24.3209436,0.532488572,1.03303692,,,,,,,,,,,,,,1.0656111954077103,0.0140808328984878,2.7249704021520977,0.9302882926249446,-0.09,2.8767953685281182,2.722439552152098,0.9296636366249448,-0.08389419,71.14589636602925,0.274360111588202,0.1716418670193028,,,,,,,
2023-04-19 07:10:24.863192,19.193491,3.52,1.15,3.29,-0.55,16.86,887.16,51.66,25.0,0.0,-0.00342211,-0.00183812,-0.00866325,32.6911118,-103.075257,1156.3229,-24.3141098,0.535063406,1.06015228,,,,,,,,,,,,,,1.0656726711196722,0.0140820252089284,3.4716828879564043,-0.3066234261609524,-0.55,3.481950796517776,3.4682607779564045,-0.3084615461609524,-0.54133675,95.08242208857057,0.2815505517224136,0.1351662445346416,,,,,,,
2023-04-19 07:10:25.064342,19.394641,3.49,-0.06,3.45,-0.49,16.74,887.15,52.13,18.0,0.0,-0.00217026,-0.00261269,-0.0132242,32.6911118,-103.075257,1156.28445,-24.3041423,0.5322458,1.02923776,2.17471,60.2153,15555.3,23.5358,11892.0,-0.84605,-1.0,14.0,-1181.0,81.0,,0.0,,1.066101789295022,0.0140893997656945,3.1195438397287134,-1.474634270594115,-0.49,3.449677755700547,3.117373579728713,-1.477246960594115,-0.4767757999999999,115.3551267897784,0.2827387127918738,0.1118368657083297,3.128238708902347,96.08808002326852,3.0092673717047704,-0.3655958784588284,-0.374358688,0.1326897223963549,0.2790637432158349
2023-04-19 07:10:25.263191,19.59349,3.1,0.59,3.0,-0.54,16.79,887.17,52.02,20.0,0.0,2.82035e-05,-0.00304082,-0.0159927,32.6911117,-103.075257,1156.2626,-24.2968424,0.532537762,1.05868524,,,,,,,,,,,,,,1.0659419707667044,0.0140863945787733,2.977041698804886,-0.6966510773528731,-0.54,3.0581880181622068,2.9770699023048857,-0.6996918973528732,-0.5240073000000001,103.2260188391593,0.2795096922388431,0.1184121773195279,,,,,,,
2023-04-19 07:10:25.463563,19.793862,2.79,0.89,2.63,-0.26,16.9,887.16,51.65,25.0,0.0,-0.00211848,-0.00185511,-0.0142206,32.6911117,-103.075258,1156.26589,-24.284525,0.533163247,1.04705488,,,,,,,,,,,,,,1.0655257071243447,0.0140795543582281,2.7633115263817527,-0.2703875148111463,-0.26,2.774581605603087,2.7611930463817527,-0.2722426248111463,-0.2457794,95.6309360328052,0.2771596477378419,0.1263914573999725,,,,,,,
2023-04-19 07:10:25.663643,19.993942,2.45,0.8,2.31,-0.08,16.94,887.17,51.58,18.0,0.0,-0.00162399,-0.00239681,0.00097845,32.6911117,-103.075258,1156.30898,-24.2753606,0.531256791,1.04870678,,,,,,,,,,,,,,1.0653907925267962,0.0140771275883871,2.43464807384067,-0.2204285746991853,-0.08,2.4432063655399787,2.43302408384067,-0.2228253846991853,-0.08097845,95.23276286438389,0.2753594971653796,0.123764238387126,,,,,,,
2023-04-19 07:10:25.863684,20.193983,3.14,2.06,2.36,-0.16,16.59,887.18,52.61,21.0,0.0,-0.000964438,-0.000860417,0.0176326,32.6911117,-103.075258,1156.33096,-24.2663728,0.535613726,1.05620215,,,,,,,,,,,,,,1.0666897862110185,0.0140988131975336,2.9980988729421303,0.9080766201500436,-0.16,3.1314303537479264,2.9971344349421303,0.9072162031500436,-0.1776326,73.15922315100245,0.2756150234602973,0.1763102823002905,,,,,,,
2023-04-19 07:10:26.064119,20.394418,4.6,3.12,3.38,-0.06,16.42,887.12,53.23,25.0,0.0,-0.000666882,-0.000235929,0.0166742,32.6911116,-103.075258,1156.3044699999998,-24.257829,0.532816024,1.04983331,2.17217,59.7038,15569.9,23.5438,11870.0,-0.855263,-1.0,11.0,-1203.0,81.0,,0.0,,1.0672438330651912,0.0141090891504877,4.36339750114013,1.4558716451130125,-0.06,4.599162292549227,4.36273061914013,1.4556357161130125,-0.0766742,71.5485976342728,0.2821885461552375,0.234737132852885,3.818298572585183,71.76612923400258,3.495293578376581,1.3326647301113133,-0.0856940539999999,0.2131727559915891,0.2773738989481538
2023-04-19 07:10:26.263225,20.593524,4.75,3.83,2.81,0.07,16.66,887.09,52.4,18.0,0.0,-0.000698622,-0.000579462,0.00850369,32.6911116,-103.075258,1156.28567,-24.2472634,0.535969346,1.04692722,,,,,,,,,,,,,,1.0663239563253195,0.01409408949092,4.134992877505878,2.3381261520661485,0.07,4.749369802336739,4.134294255505878,2.3375466900661483,0.06149631,60.51600657911732,0.2782312405414685,0.2769117607617464,,,,,,,
2023-04-19 07:10:26.463172,20.793471,4.17,3.45,2.34,-0.15,16.39,887.13,53.29,23.0,0.0,-0.000705343,0.000419301,0.00468133,32.6911116,-103.075258,1156.27432,-24.2365374,0.536097907,1.04592995,,,,,,,,,,,,,,1.0673664446824953,0.0141109935292739,3.549989841454095,2.185331124926547,-0.15,4.1683240487520425,3.549284498454095,2.185750425926547,-0.15468133,58.37405594123638,0.2754751874183856,0.2541403656558977,,,,,,,
2023-04-19 07:10:26.663113,20.993412,3.3,2.88,1.62,0.01,16.61,887.14,52.6,24.0,0.0,-0.000523725,-8.41213e-05,0.00446171,32.6911116,-103.075258,1156.2824999999998,-24.2253102,0.533293368,1.04932769,,,,,,,,,,,,,,1.0665680702859326,0.0140974013294923,2.659079739484601,1.96165617248857,0.01,3.30388937377697,2.658556014484601,1.96157205118857,0.00553829,53.57884585973223,0.2721878487956951,0.2209504999952695,,,,,,,
2023-04-19 07:10:26.863038,21.193337,2.4,2.05,1.15,0.44,16.82,887.18,51.9,17.0,0.0,-0.000866897,8.87706e-05,0.00398132,32.6911115,-103.075258,1156.29019,-24.2116418,0.535763345,1.04516538,,,,,,,,,,,,,,1.0658437033375194,0.0140845834394603,1.889564458769105,1.3980508417638535,0.44,2.3498878389177444,1.8886975617691049,1.3981396123638534,0.43601868,53.488692138687306,0.2706578356770187,0.1759060100667528,,,,,,,
2023-04-19 07:10:27.064351,21.39465,2.99,2.63,1.41,0.16,16.57,887.17,52.81,23.0,0.0,3.85548e-05,-0.000245899,0.00421157,32.6911115,-103.075258,1156.30642,-24.198736,0.532901723,1.0430688,2.17177,60.3779,15573.7,23.5516,11842.0,-0.873924,-1.0,14.0,-1178.0,81.0,,0.0,,1.0667513979155678,0.0141000085960014,2.3641467717692315,1.8209365836110605,0.16,2.9840051654437123,2.364185326569232,1.82069068461106,0.15578843,52.39965189421751,0.2714118714870474,0.2069108579100235,2.853463153218763,59.804703271767245,2.41901503415823,1.4166318070548662,0.17228083,0.189051297354516,0.2723626563721781
2023-04-19 07:10:27.263397,21.593696,2.83,1.55,2.37,0.03,16.63,887.17,52.54,22.0,0.0,-0.00094268,-0.000162345,0.0040308,32.6911115,-103.075258,1156.31423,-24.1889315,0.5323459,1.04892186,,,,,,,,,,,,,,1.06653052316964,0.0140962930331539,2.797019887362161,0.4428089313694621,0.03,2.83089804654896,2.7960772073621607,0.4426465863694621,0.0259691999999999,81.00416871223182,0.2755843715343044,0.1519687814286656,,,,,,,
2023-04-19 07:10:27.463592,21.793891,2.81,2.31,1.58,0.24,16.49,887.18,53.06,18.0,0.0,5.66435e-05,-0.000140634,0.00191045,32.6911114,-103.075258,1156.31594,-24.1776445,0.531752391,1.04545955,,,,,,,,,,,,,,1.067058067451942,0.0141050091586848,2.3875024171060533,1.4602507347413851,0.24,2.798635341406429,2.387559060606053,1.4601101007413853,0.2380895499999999,58.55215775396735,0.271971354366825,0.1895203373718685,,,,,,,
2023-04-19 07:10:27.663454,21.993753,2.07,0.82,1.89,-0.05,16.55,887.19,52.82,24.0,0.0,-0.000245929,-2.08407e-06,5.75276e-05,32.6911114,-103.075258,1156.32034,-24.1689065,0.530263996,1.04771229,,,,,,,,,,,,,,1.0668490932325254,0.0141013342787863,2.060058156601297,-0.0256980820386507,-0.05,2.0599725511554348,2.059812227601297,-0.0257001661086507,-0.0500575276,90.71483925940665,0.2732064183895881,0.1247146931006096,,,,,,,
2023-04-19 07:10:27.863594,22.193893,2.87,0.58,2.81,-0.17,16.71,887.18,52.17,22.0,0.0,-0.000330917,-0.000111867,-0.000261017,32.6911113,-103.075258,1156.31533,-24.1597059,0.532805599,1.0445734,,,,,,,,,,,,,,1.066248184146762,0.0140913853355163,2.801250224702182,-0.6208841909776502,-0.17,2.868934483790568,2.8009193077021823,-0.6209960579776502,-0.169738983,102.5009202325718,0.2781573622722962,0.1187205603319051,,,,,,,
2023-04-19 07:10:28.064502,22.394801,2.76,0.42,2.71,-0.31,16.73,887.18,52.21,17.0,0.0,0.000863403,-0.000878322,-0.00035546,32.6911113,-103.075258,1156.31643,-24.149159,0.531004258,1.05239272,2.17529,60.3704,15570.2,23.5602,11840.0,-0.859905,-1.0,11.0,-1203.0,81.0,,0.0,,1.0661746193486286,0.0140901481310269,2.644657957023532,-0.725454540513821,-0.31,2.7434180675770654,2.645521360023532,-0.726332862513821,-0.30964454,105.35237830505396,0.2775191723105547,0.1157821778135488,2.603508518135224,98.18789620642184,2.55489316128826,-0.4028951439868224,-0.24567427212,0.1216558697635042,0.2764180340770216
2023-04-19 07:10:28.263446,22.593745,3.0,0.57,2.91,-0.46,16.81,887.18,51.89,25.0,0.0,-0.000715756,-0.000713689,-0.00117004,32.6911113,-103.075258,1156.31948,-24.1379704,0.532824353,1.05060963,,,,,,,,,,,,,,1.0658804616387794,0.014085201518124,2.888652543436129,-0.6698406402271968,-0.46,2.9647633964065747,2.887936787436129,-0.6705543292271968,-0.45882996,103.07196153079693,0.2787902423000529,0.118592279655722,,,,,,,
2023-04-19 07:10:28.463464,22.793763,2.39,1.0,2.16,-0.24,16.74,887.19,52.11,20.0,0.0,0.000210299,-0.000669312,0.00010035,32.6911113,-103.075259,1156.33206,-24.1255989,0.534386689,1.04784187,,,,,,,,,,,,,,1.066149857909768,0.0140895728941411,2.38006582467816,0.0297770078932065,-0.24,2.380454091746475,2.3802761236781595,0.0291076958932065,-0.24010035,89.29938170427975,0.274416975112616,0.1304696379157356,,,,,,,
2023-04-19 07:10:28.663637,22.993936,2.03,0.39,1.98,-0.21,16.77,887.18,52.17,17.0,0.0,-0.0010277,-0.00052435,0.00089611,32.6911113,-103.075259,1156.33547,-24.1140001,0.532921154,1.05282757,,,,,,,,,,,,,,1.0660275202013676,0.0140876743836804,1.9665499270549212,-0.4529695181800672,-0.21,2.017159962304392,1.9655222270549213,-0.4534938681800672,-0.21089611,102.99217613627256,0.2735387793211842,0.1154633075344993,,,,,,,
2023-04-19 07:10:28.863380,23.193679,1.83,0.97,1.55,-0.09,16.77,887.18,52.08,25.0,0.0,0.000726378,-0.00101607,0.000948922,32.6911112,-103.075259,1156.34988,-24.1015248,0.535773172,1.04696127,,,,,,,,,,,,,,1.0660275202013676,0.0140876743836804,1.8109802413499485,0.2524887431947878,-0.09,1.8290761001008544,1.8117066193499485,0.2514726731947879,-0.090948922,82.09759208932236,0.271751689433184,0.1295585595777474,,,,,,,
2023-04-19 07:10:29.064359,23.394658,2.29,0.76,2.15,-0.23,16.79,887.2,52.0,19.0,0.0,0.000303407,-0.000562739,0.00136884,32.6911112,-103.075259,1156.34756,-24.0964463,0.536389683,1.05787092,2.17103,59.3473,15573.4,23.5683,11854.0,-0.845273,-1.0,17.0,-1165.0,81.0,,0.0,,1.0659780160107084,0.0140865243656399,2.2729360486495094,-0.1840155394241351,-0.23,2.2807206675934024,2.273239455649509,-0.1845782784241351,-0.23136884,94.6420129339824,0.2743319722982124,0.1233069967733934,1.97110194065609,97.99989462245694,1.9300983764146815,-0.2702977523629848,-0.1674074764,0.119441041962353,0.2730859384694337
2023-04-19 07:10:29.263625,23.593924,1.72,0.22,1.7,-0.15,17.23,887.2,50.62,18.0,0.0,-0.000350039,-0.000768627,0.00150622,32.6911112,-103.075259,1156.34951,-24.0913528,0.535235323,1.05270279,,,,,,,,,,,,,,1.064362786562934,0.0140593757192571,1.6417252395356847,-0.4930904966347443,-0.15,1.7140622459324042,1.6413752005356848,-0.4938591236347444,-0.15150622,106.74555909194632,0.272307511479221,0.1135789909180237,,,,,,,
2023-04-19 07:10:29.463424,23.793723,2.02,0.37,1.98,-0.15,16.71,887.18,52.28,25.0,0.0,1.98292e-05,-0.00084488,0.00231729,32.6911112,-103.075259,1156.36294,-24.0836066,0.536432223,1.05169731,,,,,,,,,,,,,,1.066248184146762,0.0140913853355163,1.958628550283344,-0.4701852847707654,-0.15,2.014490727349397,1.958648379483344,-0.4710301647707653,-0.15231729,103.52213286076103,0.273499739815367,0.1152973550081012,,,,,,,
2023-04-19 07:10:29.663156,23.993455,1.74,0.66,1.61,0.09,16.83,887.18,51.88,19.0,0.0,-6.38488e-05,-0.00086324,0.0047982,32.6911112,-103.075259,1156.37747,-24.0735973,0.538001429,1.04360688,,,,,,,,,,,,,,1.0658069475714893,0.0140839654158723,1.739186262348617,-0.0541400485578695,0.09,1.7399919916652913,1.739122413548617,-0.0550032885578695,0.0852018,91.81149189433282,0.2719334799438084,0.1208540381078026,,,,,,,
2023-04-19 07:10:29.863309,24.193608,2.78,0.8,2.63,-0.35,16.64,887.19,52.51,19.0,0.0,9.86652e-07,-0.000832117,0.00270526,32.6911111,-103.075259,1156.37283,-24.0630446,0.536695572,1.05742817,,,,,,,,,,,,,,1.0665177622052613,0.0140957606123958,2.7276393337623484,-0.3418825308676841,-0.35,2.749086220440014,2.7276403204143485,-0.3427146478676842,-0.3527052599999999,97.1614064692341,0.2769490819954132,0.1245261516146192,,,,,,,
2023-04-19 07:10:30.063690,24.393989,3.08,2.07,2.27,0.29,16.69,887.18,52.29,25.0,0.0,9.08377e-05,-0.000162961,-0.000426864,32.6911111,-103.075259,1156.36208,-24.057458,0.533310205,1.06157971,2.17068,60.5686,15573.8,23.5764,11897.0,-0.851934,-1.0,12.0,-1195.0,81.0,,0.0,,1.0663217590973657,0.0140926227606272,2.916662060621304,0.9648224832228418,0.29,3.072135326394481,2.916752898321304,0.9646595222228418,0.290426864,71.69936735611624,0.274901834143251,0.1772228775015523,2.898683794790093,88.44113023424936,2.842706347694942,0.0776245784596076,-0.0667824592,0.142149694075531,0.2770143076070961
2023-04-19 07:10:30.263476,24.593775,3.21,1.75,2.69,0.03,16.7,887.18,52.32,18.0,0.0,-0.000735469,-0.000224985,-0.00214115,32.6911111,-103.075259,1156.35488,-24.0474598,0.535674821,1.06927941,,,,,,,,,,,,,,1.0662849703528738,0.0140920040204904,3.169643280248298,0.5019576436083111,0.03,3.2083815821851123,3.1689078112482982,0.5017326586083111,0.03214115,81.00305198052963,0.2773024205030372,0.1615064667604701,,,,,,,
2023-04-19 07:10:30.463331,24.79363,3.74,0.87,3.62,-0.39,16.57,887.16,52.76,20.0,0.0,0.000682489,-0.000416866,-0.00102315,32.6911111,-103.075259,1156.35439,-24.0396363,0.533796082,1.07331057,,,,,,,,,,,,,,1.0667393737105348,0.0140999652447664,3.660425805942145,-0.6801344861075609,-0.39,3.7238238532655674,3.661108294942145,-0.6805513521075609,-0.38897685,100.53033347103408,0.2839847214499705,0.1266389363932106,,,,,,,
2023-04-19 07:10:30.663746,24.994045,4.51,1.14,4.35,-0.24,16.7,887.13,52.36,25.0,0.0,-0.00145345,3.73822e-06,0.00260907,32.691111,-103.075259,1156.37307,-24.0247898,0.528080662,1.07097818,,,,,,,,,,,,,,1.0662248762924604,0.0140917875311296,4.437287178842013,-0.7297824966963034,-0.24,4.495464148033621,4.435833728842013,-0.7297787584763034,-0.2426090699999999,99.3425520235675,0.2904693094107748,0.1357070937521124,,,,,,,
2023-04-19 07:10:30.863008,25.193307,4.55,0.96,4.44,-0.25,16.75,887.15,52.15,18.0,0.0,7.97564e-05,-0.000664903,0.00419674,32.691111,-103.075259,1156.3847899999998,-24.016049,0.530793942,1.04950306,,,,,,,,,,,,,,1.0660650144833874,0.0140887813135142,4.446348640650916,-0.9301525497367392,-0.25,4.542812633206447,4.446428397050916,-0.9308174527367392,-0.25419674,101.8235826370353,0.2913437219948703,0.1295233045676728,,,,,,,
2023-04-19 07:10:31.064121,25.39442,3.38,0.68,3.3,-0.2,16.71,887.16,52.33,19.0,0.0,-0.000303369,-0.000193649,0.00224606,32.691111,-103.075259,1156.3782,-24.0040824,0.530639125,1.05998662,2.16503,59.7089,15578.3,23.5855,11833.0,-0.813592,-1.0,11.0,-1203.0,81.0,,0.0,,1.0662241473518808,0.0140912987468549,3.29122954552914,-0.7212545172378833,-0.2,3.369077404265551,3.2909261765291395,-0.7214481662378832,-0.20224606,102.36497223136324,0.2814602870426209,0.1215959654141757,3.745619823899299,103.2879306542042,3.643318307429969,-0.839411881175953,-0.2342781122,0.1239742489881426,0.2847647961241944
2023-04-19 07:10:31.262863,25.593162,3.42,0.25,3.4,-0.24,16.63,887.19,52.54,24.0,0.0,-0.00105649,-0.000233227,0.00179244,32.6911109,-103.075259,1156.38455,-23.9904065,0.528749245,1.04868618,,,,,,,,,,,,,,1.0665545666003955,0.0140963796877381,3.2079319821964023,-1.153981107991574,-0.24,3.408263656695292,3.2068754921964024,-1.154214334991574,-0.24179244,109.79475058503064,0.2822169730132274,0.1142606802359767,,,,,,,
2023-04-19 07:10:31.462895,25.793194,2.93,0.55,2.86,-0.23,16.7,887.18,52.36,17.0,0.0,-0.000133938,-0.000913953,0.000546251,32.6911109,-103.075259,1156.38247,-23.9812137,0.531619316,1.04982381,,,,,,,,,,,,,,1.0662849703528738,0.0140920040204904,2.8366616805313742,-0.659886740437265,-0.23,2.912481277295582,2.8365277425313744,-0.660800693437265,-0.230546251,103.11379579402436,0.2783336891594785,0.1187842009707758,,,,,,,
2023-04-19 07:10:31.663063,25.993362,3.46,0.36,3.44,-0.17,16.84,887.18,51.9,20.0,0.0,-0.000491105,3.89085e-06,-0.00128899,32.6911109,-103.075259,1156.37307,-23.9727653,0.532298884,1.05145052,,,,,,,,,,,,,,1.0657701943404272,0.0140833474473528,3.2895299443622057,-1.0687341788978126,-0.17,3.458317642355,3.2890388393622056,-1.068730288047813,-0.16871101,108.0008947805854,0.2825207375607219,0.1156037976296819,,,,,,,
2023-04-19 07:10:31.862918,26.193217,3.27,1.29,3.0,-0.2,16.85,887.15,51.77,24.0,0.0,-0.00034609,-0.000603112,-0.00208238,32.6911109,-103.075259,1156.3792999999998,-23.9626414,0.531926441,1.05275446,,,,,,,,,,,,,,1.0656974058577031,0.0140825998223844,3.2653531617132643,-0.03960718734255,-0.2,3.265254667941054,3.2650070717132644,-0.04021029934255,-0.19791762,90.7055923393055,0.2792664554071919,0.1416242252828024,,,,,,,
